,property_id,locality_name,postal_code,streetname,housenumber,latitude,longitude,property_type,property_subtype,price,type_of_sale,nb_of_rooms,area,kitchen_type,fully_equipped_kitchen,furnished,open_fire,terrace,terrace_area,garden,garden_area,surface,surface_area_plot,nb_of_facades,swimming_pool,state_of_building,surface_of_good,how_many_shops,how_many_restaurants,how_many_schools,closest_school
0,11128275,Antwerpen Merksem,2170,Wuytslei,2/4,51.2437431,4.4433718,HOUSE,MIXED_USE_BUILDING,399900.0,BUY_REGULAR,,210.0,INSTALLED,1.0,0.0,0,,,,,,,2.0,0.0,GOOD,65.0,41.0,5.0,12.0,1.043
1,11157340,Hoei,4500,Rue des Jardins,47,50.5244519,5.2342381,HOUSE,APARTMENT_BLOCK,300000.0,BUY_REGULAR,,192.0,INSTALLED,1.0,0.0,0,1.0,35.0,1.0,300.0,,,2.0,0.0,GOOD,450.0,52.0,19.0,2.0,0.165
2,11156811,Oupeye,4683,Rue Jean Volders,260,50.7028377,5.6386937,HOUSE,HOUSE,210000.0,BUY_REGULAR,,78.0,NOT_INSTALLED,1.0,0.0,0,1.0,12.0,1.0,235.0,,,3.0,0.0,TO_RENOVATE,399.0,38.0,7.0,0.0,
3,9466117,Beveren-Leie,8791,Sint-Jansstraat,,50.8707006,3.3353213,HOUSE_GROUP,HOUSE_GROUP,,BUY_REGULAR,,,,,,0,,,,,,,,,,,16.0,2.0,1.0,
4,10682170,Oudenburg,8460,Pastoriestraat,7,51.1694329,3.0322612,HOUSE_GROUP,HOUSE_GROUP,,BUY_REGULAR,,,,,,0,,,,,,,,,,,5.0,1.0,0.0,
5,11157438,Vorst,1190,Rue Berkendael,49,50.8179856,4.346715,HOUSE,HOUSE,875000.0,BUY_REGULAR,,230.0,HYPER_EQUIPPED,1.0,,0,,,,,,,2.0,0.0,AS_NEW,95.0,268.0,123.0,16.0,0.326
6,11156524,Erpe-Mere,9420,Nijverheidsstraat,95,50.919114,3.9646584,HOUSE,HOUSE,395000.0,BUY_REGULAR,,217.0,HYPER_EQUIPPED,1.0,,0,1.0,,,,,,2.0,0.0,AS_NEW,238.0,30.0,1.0,1.0,1.56
7,11159160,Brakel,9660,Hollebeekstraat,11,50.7854956,3.7982763,HOUSE_GROUP,HOUSE_GROUP,,BUY_REGULAR,,,,,,0,,,,,,,,,,,0.0,0.0,0.0,
8,11153591,Ottignies,1340,Rue des Fusillés,66,50.6717842,4.5759286,HOUSE,HOUSE,395000.0,BUY_REGULAR,,141.0,USA_HYPER_EQUIPPED,1.0,,0,1.0,37.0,1.0,76.0,,,2.0,,GOOD,165.0,25.0,2.0,0.0,
9,11155146,Mariakerke,9030,Speistraat,16,51.0856034,3.6659281,HOUSE_GROUP,HOUSE_GROUP,,BUY_REGULAR,,,,,,0,,,,,,,,,,,13.0,1.0,0.0,
10,11156843,Merelbeke,9820,Hendrik Consciencestraat,102,51.0192495,3.7609567,HOUSE,HOUSE,315000.0,BUY_REGULAR,,126.0,INSTALLED,1.0,0.0,0,1.0,23.0,,,,,2.0,,GOOD,77.0,46.0,8.0,4.0,1.44
11,11157483,Ronse,9600,Aatstraat,40,50.741809,3.6076012,HOUSE,HOUSE,245000.0,BUY_REGULAR,,146.0,INSTALLED,1.0,0.0,0,1.0,13.0,1.0,161.0,,,2.0,0.0,GOOD,250.0,15.0,12.0,1.0,0.545
12,10882093,GODINNE,5530,,,,,HOUSE_GROUP,HOUSE_GROUP,,BUY_REGULAR,,,,,,0,,,,,,,,,,,,,,
13,11159253,Oupeye,4680,Rue de la Wallonie,"4,D",50.708677,5.6219457,HOUSE,HOUSE,299000.0,BUY_REGULAR,,116.0,NOT_INSTALLED,1.0,0.0,0,1.0,25.0,1.0,204.0,,,3.0,0.0,TO_BE_DONE_UP,381.0,18.0,2.0,0.0,
14,11153335,Gentbrugge,9050,Rode-Kruisstraat,5-9,51.0284723,3.7641375,HOUSE_GROUP,HOUSE_GROUP,,BUY_REGULAR,,,,,,0,,,,,,,,,,,45.0,7.0,4.0,0.691
15,11156973,Marchin,4570,Beau Séjour,19,50.4823547,5.2495614,HOUSE,BUNGALOW,249000.0,BUY_REGULAR,,85.0,INSTALLED,1.0,,1,1.0,,1.0,355.0,,,4.0,0.0,GOOD,739.0,0.0,0.0,0.0,
16,11156611,Gent Mariakerke,9030,Gérard Willemotlaan,88,51.074975,3.68256,HOUSE_GROUP,HOUSE_GROUP,,BUY_REGULAR,,,,,,0,,,,,,,,,,,32.0,5.0,3.0,
17,11155234,Rixensart,1330,Rue du roi,1,50.7051261,4.5073804,HOUSE,HOUSE,360000.0,BUY_REGULAR,,225.0,SEMI_EQUIPPED,1.0,0.0,0,1.0,12.0,1.0,100.0,,,3.0,0.0,TO_BE_DONE_UP,479.0,8.0,3.0,0.0,
18,11157437,Elsene,1050,Rue Berkendael,49,50.8179856,4.346715,HOUSE,HOUSE,875000.0,BUY_REGULAR,,230.0,HYPER_EQUIPPED,1.0,,0,,,,,,,2.0,0.0,AS_NEW,95.0,268.0,123.0,16.0,0.326
19,11156837,Beyne-Heusay Bellaire,4610,Rue Emile Vandervelde,361,50.6426168,5.6669736,HOUSE,HOUSE,289900.0,BUY_REGULAR,,140.0,INSTALLED,1.0,0.0,0,1.0,22.0,1.0,50.0,,,4.0,0.0,GOOD,185.0,4.0,1.0,0.0,
20,11154906,Oud-Turnhout,2360,Neerstraat,61,51.3148708,4.9840514,HOUSE_GROUP,HOUSE_GROUP,,BUY_REGULAR,,,,,,0,,,,,,,,,,,10.0,3.0,2.0,1.85
21,11156556,Nazareth,9810,Hoogkouter,1,50.9542109,3.6350241,HOUSE_GROUP,HOUSE_GROUP,,BUY_REGULAR,,,,,,0,,,,,,,,,,,4.0,0.0,1.0,2.494
22,11155384,Zwijnaarde,9052,Heerweg-zuid,193,50.9969529,3.7070249,HOUSE_GROUP,HOUSE_GROUP,,BUY_REGULAR,,,,,,0,,,,,,,,,,,9.0,3.0,0.0,
23,11155382,Gent,9000,Heerweg-zuid,193,50.9969529,3.7070249,HOUSE_GROUP,HOUSE_GROUP,,BUY_REGULAR,,,,,,0,,,,,,,,,,,9.0,3.0,0.0,
24,11150522,Gavere,9890,Slaapstraat,8,50.9145933,3.6505555,HOUSE_GROUP,HOUSE_GROUP,,BUY_REGULAR,,,,,,0,,,,,,,,,,,8.0,0.0,2.0,0.189
25,11076640,WERCHTER,3118,Hoogland,91,50.9727141,4.7160071,HOUSE_GROUP,HOUSE_GROUP,,BUY_REGULAR,,,,,,0,,,,,,,,,,,3.0,0.0,0.0,
26,11156812,Luik,4030,Avenue de l'Agriculture,117,50.6296431,5.6101569,HOUSE,HOUSE,234000.0,BUY_REGULAR,,130.0,SEMI_EQUIPPED,1.0,0.0,0,1.0,38.0,1.0,68.0,,,3.0,0.0,GOOD,236.0,22.0,4.0,1.0,1.821
27,11159846,Anderlecht,1070,,,,,APARTMENT,APARTMENT,239000.0,BUY_REGULAR,,85.0,INSTALLED,1.0,0.0,0,1.0,8.0,,,,,2.0,,,,,,,
28,11155545,Sint-Kruis,8310,Maalse Steenweg,482,51.2074689,3.2836426,HOUSE,VILLA,995000.0,BUY_REGULAR,8.0,367.0,HYPER_EQUIPPED,1.0,,0,,,1.0,735.0,,,4.0,,GOOD,1455.0,8.0,0.0,0.0,
29,11159838,Oudergem,1160,,,,,APARTMENT,APARTMENT,499000.0,BUY_REGULAR,,110.0,USA_SEMI_EQUIPPED,1.0,0.0,0,1.0,30.0,1.0,105.0,,,2.0,0.0,GOOD,,,,,
30,11159851,Colfontaine,7340,,,,,HOUSE,HOUSE,299000.0,BUY_REGULAR,,250.0,INSTALLED,1.0,,1,1.0,15.0,1.0,130.0,,,2.0,,GOOD,296.0,,,,
31,11154117,Ukkel,1180,Avenue du Directoire,73,50.7865832,4.3617109,HOUSE,HOUSE,670000.0,BUY_REGULAR,,275.0,INSTALLED,1.0,,0,1.0,18.0,1.0,145.0,,,2.0,0.0,TO_BE_DONE_UP,284.0,52.0,13.0,5.0,0.866
32,10922570,Middelkerke,8430,Jean Van Hinsberghstraat,31,51.1880828,2.8157004,APARTMENT,APARTMENT,460000.0,BUY_REGULAR,,149.0,INSTALLED,1.0,,1,,,,,,,2.0,,GOOD,,44.0,40.0,0.0,
33,11151743,Laakdal,2430,Meerlaarstraat,135,51.0866558,5.072334,HOUSE_GROUP,HOUSE_GROUP,,BUY_REGULAR,,,,,,0,,,,,,,,,,,9.0,0.0,0.0,
34,11159843,Waterloo,1410,A proximité de Joli-Bois,.,50.70069,4.40213,APARTMENT,APARTMENT,290000.0,BUY_REGULAR,,80.0,INSTALLED,1.0,0.0,0,1.0,6.0,,,,,2.0,,GOOD,,55.0,17.0,0.0,
35,11159840,Westende,8434,Steenstraat,13,51.1548914,2.7650689,HOUSE,HOUSE,195000.0,BUY_REGULAR,,60.0,,,0.0,0,1.0,,,,,,4.0,0.0,,208.0,6.0,6.0,0.0,
36,11159826,Marchin,4570,Rue Octave Philippot,29,50.4882738,5.2249369,HOUSE,HOUSE,365000.0,BUY_REGULAR,,190.0,HYPER_EQUIPPED,1.0,,1,1.0,40.0,1.0,390.0,,,4.0,,AS_NEW,1210.0,1.0,1.0,0.0,
37,11159831,Hasselt,3500,Maastrichtersteenweg,23,50.9304774,5.3461674,APARTMENT_GROUP,APARTMENT_GROUP,,BUY_REGULAR,,,,,,0,,,,,,,,,,,114.0,69.0,5.0,0.355
38,11159797,Stabroek,2940,Lepelstraat,59,51.3502941,4.3974632,APARTMENT,APARTMENT,239000.0,BUY_REGULAR,,135.0,HYPER_EQUIPPED,1.0,,1,,,1.0,44.0,,,,,TO_BE_DONE_UP,,17.0,4.0,2.0,1.321
39,11159833,Hasselt,3500,Maastrichtersteenweg,23,50.9304774,5.3461674,HOUSE,HOUSE,470000.0,BUY_REGULAR,4.0,115.0,,,,0,1.0,29.0,1.0,23.0,,,,,,0.0,114.0,69.0,5.0,0.355
40,11159830,Hasselt,3500,Maastrichtersteenweg,23,50.9304774,5.3461674,HOUSE,HOUSE,470000.0,BUY_REGULAR,4.0,115.0,,,,0,1.0,29.0,1.0,23.0,,,,,,0.0,114.0,69.0,5.0,0.355
41,11004834,middelkerke,8430,Leopoldlaan,164,51.1854578,2.809715,APARTMENT,GROUND_FLOOR,264000.0,BUY_REGULAR,1.0,128.0,,,,0,,,,,,,,,JUST_RENOVATED,,41.0,40.0,0.0,
42,11159829,Tongeren,3700,Op het Heysterveld,44,50.7920171,5.4803059,HOUSE,HOUSE,298000.0,BUY_REGULAR,12.0,115.0,INSTALLED,1.0,,0,1.0,,,,,,,,,171.0,24.0,6.0,2.0,1.405
43,11159815,SCHAERBEEK,1030,,,,,APARTMENT,APARTMENT,340000.0,BUY_REGULAR,,100.0,INSTALLED,1.0,,0,,,,,,,2.0,,TO_BE_DONE_UP,,,,,
44,11046401,Dikkebus,8900,Dikkebusseweg,567,50.8197841,2.830167,HOUSE,HOUSE,239000.0,BUY_REGULAR,4.0,167.0,,,,1,1.0,,,,,,,,GOOD,214.0,0.0,0.0,0.0,
45,11159814,Geraardsbergen,9500,Onkerzelestraat,122,50.7806237,3.9095934,HOUSE,MANOR_HOUSE,1950000.0,BUY_REGULAR,,600.0,HYPER_EQUIPPED,1.0,,1,1.0,,,,,,4.0,,AS_NEW,50000.0,1.0,0.0,2.0,2.235
46,11159790,Ukkel,1180,,,,,APARTMENT,APARTMENT,550000.0,BUY_REGULAR,,100.0,USA_HYPER_EQUIPPED,1.0,,0,1.0,11.0,,,,,2.0,0.0,AS_NEW,,,,,
47,11054538,Aat,7800,Marché aux Poissons,4,50.6292897,3.7766293,HOUSE,HOUSE,185000.0,BUY_REGULAR,,71.0,INSTALLED,1.0,,1,,,,,,,2.0,,GOOD,60.0,74.0,12.0,1.0,0.734
48,11159811,Borgloon,3840,Sint-Truidersteenweg,206,50.8050537,5.3170136,HOUSE,HOUSE,219000.0,BUY_REGULAR,,152.0,INSTALLED,1.0,,1,,,,,,,2.0,,GOOD,0.0,0.0,0.0,0.0,
49,11159793,Dilbeek,1700,Sint-Martinusstraat,50,50.8659837,4.2145324,HOUSE,VILLA,869000.0,BUY_REGULAR,,354.0,,1.0,0.0,0,,,,,,,4.0,0.0,,1070.0,2.0,2.0,0.0,
50,11159792,Antwerpen,2018,,,,,HOUSE,APARTMENT_BLOCK,1950000.0,BUY_REGULAR,,,SEMI_EQUIPPED,1.0,,1,,,,,,,2.0,,TO_RENOVATE,0.0,,,,
51,11159795,Stabroek,2940,Lepelstraat,59,51.3502941,4.3974632,HOUSE,HOUSE,239000.0,BUY_REGULAR,,135.0,HYPER_EQUIPPED,1.0,,1,,,1.0,44.0,,,,,TO_BE_DONE_UP,130.0,17.0,4.0,2.0,1.321
52,11159754,Mechelen,2800,Leopoldstraat,72,51.0187425,4.4804786,APARTMENT,APARTMENT,496100.0,BUY_REGULAR,,102.0,INSTALLED,1.0,0.0,0,1.0,15.0,1.0,64.0,,,3.0,,AS_NEW,,213.0,59.0,2.0,0.152
53,11159809,Florennes,5620,Place Verte 28,,50.2501993,4.6060155,HOUSE,APARTMENT_BLOCK,950000.0,BUY_REGULAR,,1500.0,INSTALLED,1.0,0.0,0,,,,,,,4.0,,,0.0,1.0,0.0,0.0,
54,11159764,Profondeville,5170,Rue Pré Baudot,27,50.3847032,4.9003376,HOUSE,VILLA,389000.0,BUY_REGULAR,,190.0,,,0.0,0,,,,,,,4.0,0.0,,1266.0,3.0,1.0,0.0,
55,11159767,Willebroek,2830,Nieuwstraat,"5,0201",51.0607848,4.3617469,APARTMENT,APARTMENT,130000.0,BUY_REGULAR,,67.0,,1.0,,0,,,,,,,,,TO_RENOVATE,,27.0,5.0,2.0,0.451
56,11159760,Vorst,1190,Avenue Molière,120,50.8162244,4.3500161,APARTMENT,APARTMENT,370000.0,BUY_REGULAR,,114.0,USA_HYPER_EQUIPPED,1.0,,1,1.0,5.0,,,,,2.0,,TO_BE_DONE_UP,,270.0,114.0,13.0,0.215
57,11151746,Laakdal,2430,Beustereind,132,51.0858011,5.0466872,HOUSE_GROUP,HOUSE_GROUP,,BUY_REGULAR,,,,,,0,,,,,,,,,,,5.0,0.0,0.0,
58,11159786,Zottegem,9620,Paddestraat,84,50.8794467,3.7702316,HOUSE,VILLA,849000.0,BUY_REGULAR,,290.0,HYPER_EQUIPPED,1.0,0.0,0,1.0,62.0,1.0,13000.0,,,4.0,0.0,GOOD,13135.0,2.0,2.0,0.0,
59,11159766,Bruxelles,1020,Rue Ketels,23,50.8762654,4.3494809,APARTMENT,APARTMENT,275000.0,BUY_REGULAR,,110.0,,1.0,0.0,0,1.0,9.0,,,,,2.0,0.0,GOOD,,341.0,32.0,17.0,0.629
60,11159768,Affligem,1790,TERLINDENSTRAAT,64,50.9182494,4.1005999,HOUSE,HOUSE,375000.0,BUY_REGULAR,,239.0,,,,1,,,,,,,4.0,,GOOD,220.0,17.0,2.0,0.0,
61,11150513,Gent Gentbrugge,9050,Jules de Saint-Genoisstraat,81-81A,51.029384,3.7586157,HOUSE_GROUP,HOUSE_GROUP,,BUY_REGULAR,,,,,,0,,,,,,,,,,,48.0,8.0,7.0,1.07
62,11151007,Sint-Gillis-Waas,9170,Eeckbergstraat,35,51.2370331,4.1075188,HOUSE,HOUSE,555000.0,BUY_REGULAR,,255.0,INSTALLED,1.0,,0,1.0,14.0,1.0,182.0,,,3.0,0.0,AS_NEW,318.0,1.0,0.0,0.0,
63,11148693,Herzele,9550,Rosalie Daemstraat,16,50.8909886,3.8817543,HOUSE_GROUP,HOUSE_GROUP,,BUY_REGULAR,,,,,,0,,,,,,,,,,,11.0,0.0,0.0,
64,10739253,RANST (BROECHEM),2520,KAPELSTRAAT,,51.1843062,4.6060596,HOUSE_GROUP,HOUSE_GROUP,,BUY_REGULAR,,,,,,0,,,,,,,,,,,2.0,1.0,0.0,
65,11152241,Antwerpen,2018,Pyckestraat,28,51.2016514,4.3998097,HOUSE,HOUSE,779000.0,BUY_REGULAR,,280.0,INSTALLED,1.0,,0,,,1.0,48.0,,,2.0,0.0,AS_NEW,140.0,175.0,112.0,14.0,0.356
66,11148824,Sint-Niklaas,9100,Van Havermaetstraat,49,51.1711175,4.1577545,HOUSE,HOUSE,199000.0,BUY_REGULAR,,139.0,USA_INSTALLED,1.0,0.0,0,1.0,,1.0,65.0,,,2.0,,GOOD,145.0,15.0,11.0,1.0,1.766
67,11149628,Evergem,9940,Hof Van Cluysen,13,51.1542635,3.7347196,HOUSE,HOUSE,449000.0,BUY_REGULAR,7.0,184.0,INSTALLED,1.0,,0,1.0,28.0,,,,,3.0,0.0,AS_NEW,299.0,0.0,1.0,1.0,2.319
68,11148919,Dilbeek,1700,Voorspoedlaan,16,50.8411663,4.2622825,HOUSE,HOUSE,449000.0,BUY_REGULAR,,130.0,USA_HYPER_EQUIPPED,1.0,0.0,0,,,1.0,160.0,,,4.0,,AS_NEW,225.0,16.0,9.0,2.0,2.261
69,11150135,Hasselt,3500,Hoekvijverslaan,24,50.9467092,5.3707677,HOUSE,VILLA,825000.0,BUY_REGULAR,,483.0,INSTALLED,1.0,,1,1.0,44.0,1.0,920.0,,,4.0,0.0,AS_NEW,1340.0,13.0,1.0,3.0,1.296
70,11150049,Anderlecht,1070,Rue Horace - Horatiusstraat,10,50.8443371,4.2896647,HOUSE,HOUSE,415000.0,BUY_REGULAR,,107.0,USA_HYPER_EQUIPPED,1.0,,1,1.0,70.0,1.0,18.0,,,3.0,0.0,JUST_RENOVATED,250.0,41.0,8.0,14.0,1.313
71,11151131,Steenokkerzeel,1820,ANJELIERENLAAN,10,50.9227337,4.5015582,HOUSE,HOUSE,475000.0,BUY_REGULAR,,161.0,INSTALLED,1.0,,1,1.0,,1.0,,,,4.0,,GOOD,721.0,17.0,3.0,0.0,
72,11148906,Bonheiden,2820,Mechelsesteenweg,237,51.0270902,4.532861,HOUSE,HOUSE,549000.0,BUY_REGULAR,,308.0,SEMI_EQUIPPED,1.0,,0,1.0,,,,,,4.0,0.0,GOOD,2109.0,9.0,3.0,2.0,
73,11156650,Berloz,4257,Rue de Waremme,21,50.6946022,5.2176614,HOUSE,BUNGALOW,380000.0,BUY_REGULAR,,160.0,,1.0,0.0,0,1.0,,1.0,1900.0,,,4.0,0.0,GOOD,2430.0,0.0,0.0,0.0,
74,11156621,Deinze,9800,Achterstraat,228,50.9856681,3.5649778,HOUSE,VILLA,695000.0,BUY_REGULAR,,385.0,USA_HYPER_EQUIPPED,1.0,0.0,0,1.0,124.0,1.0,1105.0,,,4.0,1.0,GOOD,1811.0,17.0,6.0,0.0,
75,11058260,Wetteren,9230,Warandelaan,39,51.0034167,3.8952444,HOUSE,HOUSE,250000.0,BUY_REGULAR,,150.0,HYPER_EQUIPPED,1.0,0.0,0,1.0,30.0,,,,,2.0,0.0,GOOD,150.0,97.0,12.0,3.0,0.602
76,11117027,Antwerpen,2050,Hubert Lampolaan,11,51.2188737,4.3661173,HOUSE,HOUSE,562500.0,BUY_REGULAR,,140.0,INSTALLED,1.0,1.0,0,1.0,12.0,1.0,72.0,,,2.0,0.0,AS_NEW,155.0,4.0,1.0,1.0,1.76
77,11147395,ANTWERPEN,2000,Leopoldstraat,63,51.2133243,4.4074277,HOUSE,MIXED_USE_BUILDING,167000.0,BUY_REGULAR,,38.0,SEMI_EQUIPPED,1.0,,0,1.0,3.0,,,,,2.0,,JUST_RENOVATED,100.0,1213.0,360.0,25.0,0.392
78,11147509,Amay,4540,Rue des Trois Soeurs,27,50.5587718,5.3096595,HOUSE,HOUSE,375000.0,BUY_REGULAR,,215.0,INSTALLED,1.0,,1,1.0,30.0,1.0,2125.0,,,4.0,,GOOD,2634.0,1.0,0.0,0.0,
79,11146152,Affligem,1790,Pastorijweg,38,50.9083486,4.1129978,HOUSE,HOUSE,309000.0,BUY_REGULAR,,145.0,INSTALLED,1.0,0.0,0,1.0,20.0,1.0,60.0,,,3.0,0.0,GOOD,130.0,21.0,4.0,0.0,
80,11147196,Leopoldsburg,3970,Sparrenstraat,39-45,51.1298594,5.2598248,HOUSE_GROUP,HOUSE_GROUP,,BUY_REGULAR,,,,,,0,,,,,,,,,,,8.0,0.0,0.0,
81,11146621,Seraing,4100,Rue de la Boverie,535,50.5951096,5.5045422,HOUSE,HOUSE,189000.0,BUY_REGULAR,,110.0,INSTALLED,1.0,0.0,0,1.0,46.0,1.0,135.0,,,2.0,0.0,GOOD,260.0,2.0,0.0,0.0,
82,11146243,BRUXELLES,1130,Beemdgrachtstraat,9,50.895537,4.4184493,HOUSE_GROUP,HOUSE_GROUP,,BUY_REGULAR,,,,,,0,,,,,,,,,,,6.0,2.0,5.0,0.777
83,11146581,Berloz,4257,Rue des Ecoles,47,50.7022562,5.2172585,HOUSE,HOUSE,174000.0,BUY_REGULAR,,140.0,NOT_INSTALLED,1.0,0.0,0,1.0,5.0,1.0,490.0,,,4.0,0.0,TO_RENOVATE,787.0,0.0,0.0,0.0,
84,11146345,Deinze,9800,Bremkouter,20-28,50.9854895,3.5856772,HOUSE_GROUP,HOUSE_GROUP,,BUY_REGULAR,,,,,,0,,,,,,,,,,,7.0,3.0,1.0,
85,11156311,Kruisem,9750,Voordestraat,4,50.9052782,3.6520204,HOUSE,HOUSE,160000.0,BUY_REGULAR,17.0,128.0,,1.0,,0,1.0,,,,,,3.0,,TO_RENOVATE,203.0,16.0,0.0,1.0,0.909
86,11146242,Gent,9032,Westergemstraat,297,51.0844744,3.708764,HOUSE,HOUSE,400000.0,BUY_REGULAR,,131.0,INSTALLED,1.0,,0,1.0,,1.0,113.0,,,2.0,0.0,GOOD,240.0,15.0,3.0,2.0,2.193
87,11156310,Kruisem,9750,Voordestraat,2,50.9052765,3.6520219,HOUSE,HOUSE,125000.0,BUY_REGULAR,15.0,128.0,,1.0,,0,1.0,,,,,,3.0,,TO_RENOVATE,207.0,16.0,0.0,1.0,0.909
88,11159753,Niel,2845,,,,,APARTMENT,APARTMENT,319000.0,BUY_REGULAR,,80.0,HYPER_EQUIPPED,1.0,,0,1.0,,,,,,4.0,,,,,,,
89,11146418,Braives,4260,Rue du Cortil,7,50.617223,5.1601283,HOUSE,EXCEPTIONAL_PROPERTY,780000.0,BUY_REGULAR,,360.0,HYPER_EQUIPPED,1.0,0.0,0,1.0,,1.0,1700.0,,,4.0,1.0,AS_NEW,2686.0,0.0,0.0,0.0,
90,11159752,SINT-KATELIJNE-WAVER,2860,Dijk,59,51.0588846,4.5764739,HOUSE,HOUSE,539000.0,BUY_REGULAR,,217.0,SEMI_EQUIPPED,1.0,,1,1.0,107.0,1.0,347.0,,,3.0,,GOOD,823.0,2.0,0.0,4.0,0.354
91,11154869,MESSANCY,6780,Rue du Dolberg,1,49.5921897,5.8207357,HOUSE,HOUSE,200000.0,BUY_REGULAR,,94.0,SEMI_EQUIPPED,1.0,,0,1.0,15.0,,,,,3.0,,TO_BE_DONE_UP,386.0,7.0,0.0,0.0,
92,11159743,Anderlecht,1070,,,,,APARTMENT,APARTMENT,159000.0,BUY_REGULAR,,71.0,,,0.0,0,1.0,,1.0,1.0,,,4.0,,,,,,,
93,11159745,Leeuw-Saint-Pierre,1600,"Jan Dambrestraat,",6,50.7860461,4.2825608,APARTMENT,DUPLEX,239000.0,BUY_REGULAR,11.0,115.0,,1.0,0.0,0,,,,,,,5.0,0.0,TO_RENOVATE,,15.0,2.0,0.0,
94,11159751,Onze-Lieve-Vrouw-Waver,2861,Dijk,59,51.0588846,4.5764739,HOUSE,HOUSE,539000.0,BUY_REGULAR,,217.0,SEMI_EQUIPPED,1.0,,1,1.0,107.0,1.0,347.0,,,3.0,,GOOD,823.0,2.0,0.0,4.0,0.354
95,11159744,Leeuw-Saint-Pierre,1600,"Jan Dambrestraat,",6,50.7860461,4.2825608,APARTMENT,GROUND_FLOOR,155000.0,BUY_REGULAR,6.0,51.0,,1.0,0.0,0,,,,,,,5.0,0.0,TO_RENOVATE,,15.0,2.0,0.0,
96,10816805,Luik,4000,Place du XX Aout,30-34,50.6401702,5.5753808,APARTMENT,FLAT_STUDIO,87000.0,BUY_REGULAR,,17.0,,,,1,,,,,,,,,,,420.0,180.0,5.0,0.366
97,11159729,Etterbeek,1040,Boulevard Louis Schmidt,53,50.8281581,4.4015694,APARTMENT,APARTMENT,330000.0,BUY_REGULAR,,81.0,SEMI_EQUIPPED,1.0,,1,1.0,2.0,,,,,2.0,,GOOD,,276.0,57.0,10.0,0.716
98,11159742,Crisnée,4367,Rue Henri Lykops,8,50.7051141,5.3853484,HOUSE,HOUSE,285000.0,BUY_REGULAR,,112.0,SEMI_EQUIPPED,1.0,,1,1.0,80.0,1.0,215.0,,,3.0,,GOOD,490.0,1.0,0.0,0.0,
99,11159721,Fléron,4621,Rue des Trois Chênes,22A,50.6188449,5.700864,HOUSE,HOUSE,250000.0,BUY_REGULAR,,145.0,INSTALLED,1.0,0.0,0,1.0,4.0,1.0,180.0,,,3.0,0.0,GOOD,390.0,10.0,1.0,0.0,
100,11159718,Jemeppe-sur-Meuse,4101,,,,,HOUSE,HOUSE,97000.0,BUY_REGULAR,,50.0,HYPER_EQUIPPED,1.0,0.0,0,,,,,,,2.0,,,36.0,,,,
101,11159728,Machelen Diegem,1831,,,,,APARTMENT,APARTMENT,223000.0,BUY_REGULAR,,72.0,USA_HYPER_EQUIPPED,1.0,,0,1.0,5.0,,,,,2.0,0.0,AS_NEW,,,,,
102,11159722,Fléron - Retinne,4620,Rue des Trois Chênes,22A,50.6188449,5.700864,HOUSE,HOUSE,250000.0,BUY_REGULAR,,145.0,INSTALLED,1.0,0.0,0,1.0,4.0,1.0,180.0,,,3.0,0.0,GOOD,390.0,10.0,1.0,0.0,
103,11159717,Willebroek,2830,Nieuwstraat,"5,0101",51.0607849,4.3631197,APARTMENT,APARTMENT,145000.0,BUY_REGULAR,,88.0,,1.0,,0,1.0,,,,,,,,TO_RENOVATE,,25.0,6.0,2.0,0.468
104,11159713,Ichtegem,8480,Diksmuidebaan,105,51.0829281,3.04205,HOUSE,HOUSE,250000.0,BUY_REGULAR,3.0,,,,,0,,,,,,,3.0,,GOOD,152.0,1.0,0.0,0.0,
105,11159720,Kapellen,2950,Heizoomlaan,25,51.3030548,4.4267968,HOUSE,HOUSE,299000.0,BUY_REGULAR,1.0,162.0,,1.0,,0,,,,,,,3.0,,TO_RENOVATE,367.0,3.0,0.0,8.0,0.721
106,11159714,Brecht,2960,Kapelstraat,58,51.3423653,4.6076211,HOUSE,HOUSE,325000.0,BUY_REGULAR,,151.0,,,0.0,0,1.0,,,,,,2.0,0.0,,163.0,5.0,0.0,0.0,
107,11159715,Waregem,8790,Westerlaan,21,50.8848937,3.4235225,APARTMENT,APARTMENT,110000.0,BUY_REGULAR,,40.0,,,0.0,0,1.0,,,,,,2.0,0.0,,,133.0,20.0,2.0,0.3
108,11159709,Nazareth,9810,Drapstraat,22,50.95972,3.6011273,APARTMENT,PENTHOUSE,601000.0,BUY_REGULAR,,146.0,USA_HYPER_EQUIPPED,1.0,0.0,0,1.0,15.0,,,,,2.0,0.0,AS_NEW,,20.0,0.0,1.0,0.143
109,11159711,Jette,1090,Avenue de l'Exposition 450,,50.8917623,4.3154219,APARTMENT,APARTMENT,214000.0,BUY_REGULAR,,90.0,NOT_INSTALLED,1.0,0.0,0,1.0,9.0,,,,,4.0,,,,33.0,16.0,8.0,1.181
110,11159710,Nazareth,9810,Drapstraat,22,50.95972,3.6011273,APARTMENT,APARTMENT,366000.0,BUY_REGULAR,,82.0,USA_HYPER_EQUIPPED,1.0,0.0,0,1.0,13.0,,,,,2.0,0.0,AS_NEW,,20.0,0.0,1.0,0.143
111,11159706,Bruxelles  2,1020,Rue Drootbeek 70-72,,50.871909,4.3454283,APARTMENT,APARTMENT,319000.0,BUY_REGULAR,,115.0,INSTALLED,1.0,0.0,1,1.0,9.0,1.0,80.0,,,2.0,,,,352.0,44.0,21.0,0.713
112,11159708,Bruxelles  2,1020,Rue Drootbeek 45,,50.8725095,4.3498066,APARTMENT,APARTMENT,339000.0,BUY_REGULAR,,130.0,INSTALLED,1.0,0.0,0,1.0,7.0,,,,,2.0,,,,319.0,35.0,21.0,0.408
113,11159705,Jette,1090,Avenue de l'Exposition 410,,50.8891857,4.3176571,APARTMENT,APARTMENT,199000.0,BUY_REGULAR,,80.0,INSTALLED,1.0,0.0,0,1.0,10.0,,,,,2.0,,,,56.0,23.0,8.0,1.252
114,11159704,Waterloo,1410,,,,,HOUSE,HOUSE,595000.0,BUY_REGULAR,,238.0,USA_HYPER_EQUIPPED,1.0,0.0,0,1.0,15.0,1.0,450.0,,,3.0,0.0,AS_NEW,466.0,,,,
115,11153264,Aalst,9300,De Visscherestraat,17,50.9426878,4.0323306,HOUSE,HOUSE,385000.0,BUY_REGULAR,,209.0,INSTALLED,1.0,0.0,0,1.0,20.0,,,,,2.0,0.0,AS_NEW,110.0,59.0,15.0,6.0,0.645
116,11159707,Ruiselede,8755,Tuinwijk,5,51.0373328,3.392955,HOUSE,HOUSE,289000.0,BUY_REGULAR,1.0,187.0,,,,0,,,1.0,90.0,,,3.0,,GOOD,196.0,27.0,3.0,0.0,
117,11159703,Eigenbrakel,1420,,,,,HOUSE,HOUSE,595000.0,BUY_REGULAR,,238.0,USA_HYPER_EQUIPPED,1.0,0.0,0,1.0,15.0,1.0,450.0,,,3.0,0.0,AS_NEW,466.0,,,,
118,10969777,Tielt,8700,Oude Stationstraat,127,50.9919727,3.3299763,APARTMENT,APARTMENT,185000.0,BUY_REGULAR,1.0,94.0,,,,0,,,1.0,34.0,,,2.0,,GOOD,,97.0,11.0,0.0,
119,10978256,Tielt,8700,Oude Stationstraat,127,50.9919727,3.3299763,APARTMENT,APARTMENT,410000.0,BUY_REGULAR,1.0,187.0,,,,0,,,1.0,34.0,,,2.0,,GOOD,,97.0,11.0,0.0,
120,10969778,Tielt,8700,Oude Stationstraat,127,50.9919727,3.3299763,APARTMENT,APARTMENT,185000.0,BUY_REGULAR,1.0,93.0,,,,0,,,1.0,34.0,,,2.0,,TO_BE_DONE_UP,,97.0,11.0,0.0,
121,11155302,Wielsbeke,8710,Rijksweg,186,50.9101878,3.3823837,HOUSE,VILLA,420000.0,BUY_REGULAR,,200.0,SEMI_EQUIPPED,1.0,,1,1.0,,,,,,4.0,,GOOD,950.0,8.0,0.0,1.0,1.702
122,11154876,Vilvoorde,1800,Heembeekstraat,23,50.9016958,4.3694477,HOUSE,HOUSE,590000.0,BUY_REGULAR,,260.0,USA_HYPER_EQUIPPED,1.0,0.0,0,1.0,30.0,1.0,133.0,,,3.0,,GOOD,370.0,176.0,31.0,2.0,0.9
123,11154648,Antwerpen,2600,Generaal van Merlenstraat,19,51.2028058,4.4309811,HOUSE,HOUSE,770000.0,BUY_REGULAR,,384.0,USA_INSTALLED,1.0,,0,1.0,20.0,,,,,2.0,,TO_BE_DONE_UP,118.0,240.0,75.0,18.0,0.065
124,11159151,Geraardsbergen,9500,Zonnebloemstraat,27,50.7755836,3.8918584,HOUSE,VILLA,475000.0,BUY_REGULAR,,235.0,INSTALLED,1.0,0.0,0,1.0,38.0,1.0,2093.0,,,4.0,0.0,GOOD,2327.0,28.0,9.0,8.0,0.919
125,10994408,Bruxelles,1000,Rue De Flandre - Vlaamsesteenweg,27,50.8512405,4.346897,HOUSE,MIXED_USE_BUILDING,497000.0,BUY_REGULAR,,134.0,USA_INSTALLED,1.0,,0,,,,,,,2.0,0.0,AS_NEW,43.0,1299.0,359.0,37.0,0.686
126,11144455,Angleur,4031,Rue Collée,7,50.6108414,5.6014507,HOUSE,HOUSE,139000.0,BUY_REGULAR,,89.0,NOT_INSTALLED,1.0,,1,1.0,11.0,,,,,2.0,0.0,GOOD,63.0,147.0,17.0,2.0,2.028
127,11144033,Gent,9000,Brugsesteenweg,252,51.0664781,3.6886469,HOUSE,HOUSE,289000.0,BUY_REGULAR,,154.0,USA_SEMI_EQUIPPED,1.0,0.0,0,,,1.0,8.0,,,2.0,0.0,TO_BE_DONE_UP,55.0,93.0,6.0,4.0,1.663
128,11144617,Ronse,9600,,,,,HOUSE_GROUP,HOUSE_GROUP,,BUY_REGULAR,,,,,,0,,,,,,,,,,,,,,
129,11153413,Mechelen,2800,Lakenmakersstraat,267,51.0304315,4.4995897,HOUSE,HOUSE,599000.0,BUY_REGULAR,,356.0,HYPER_EQUIPPED,1.0,0.0,0,,,,,,,2.0,0.0,JUST_RENOVATED,384.0,26.0,1.0,4.0,1.441
130,11143714,Villers-le-Bouillet,4530,Rue Fond de Vaux,3,50.6101159,5.2197889,HOUSE,COUNTRY_COTTAGE,180000.0,BUY_REGULAR,,175.0,SEMI_EQUIPPED,1.0,0.0,0,,,,,,,4.0,0.0,TO_RENOVATE,1200.0,0.0,0.0,0.0,
131,11144624,Ronse,9600,,,,,HOUSE_GROUP,HOUSE_GROUP,,BUY_REGULAR,,,,,,0,,,,,,,,,,,,,,
132,11149178,Meise,1860,Ossegemstraat,,50.9579306,4.3174189,HOUSE,VILLA,1200000.0,BUY_REGULAR,,198.0,HYPER_EQUIPPED,1.0,,0,1.0,,1.0,10505.0,,,4.0,,GOOD,10707.0,9.0,4.0,2.0,0.621
133,11143936,WIJGMAAL,3018,Korte Dolagestraat,40,50.9260178,4.6979659,HOUSE,HOUSE,438000.0,BUY_REGULAR,,169.0,INSTALLED,1.0,,0,1.0,,1.0,65.0,,,3.0,,GOOD,180.0,10.0,2.0,6.0,0.301
134,11143726,Maarkedal,9680,Louise-Mariestraat,32,50.7704121,3.6464851,HOUSE,VILLA,575000.0,BUY_REGULAR,,238.0,INSTALLED,1.0,0.0,0,1.0,40.0,1.0,800.0,,,4.0,0.0,GOOD,1588.0,0.0,0.0,0.0,
135,11120444,Charleroi,6020,Impasse des Oiseaux,28,50.4189679,4.4323831,HOUSE,HOUSE,99000.0,BUY_REGULAR,,123.0,SEMI_EQUIPPED,1.0,0.0,0,1.0,15.0,,,,,3.0,0.0,TO_RENOVATE,238.0,11.0,9.0,0.0,
136,11151111,Ukkel,1180,Franz Merjaystraat,206,50.8141822,4.3517147,HOUSE,MANSION,1000000.0,BUY_REGULAR,,325.0,INSTALLED,1.0,0.0,0,1.0,50.0,1.0,50.0,,,2.0,0.0,TO_BE_DONE_UP,155.0,212.0,92.0,15.0,0.306
137,11143713,Burdinne,4210,Rue Lombièry,7,50.5803945,5.0730423,HOUSE,COUNTRY_COTTAGE,450000.0,BUY_REGULAR,,175.0,INSTALLED,1.0,0.0,0,1.0,32.0,1.0,1600.0,,,4.0,0.0,AS_NEW,1901.0,1.0,0.0,0.0,
138,11156653,Brakel,9660,Kruisstraat,73,50.7989519,3.7758457,HOUSE,HOUSE,149000.0,BUY_REGULAR,,120.0,SEMI_EQUIPPED,1.0,,0,1.0,10.0,1.0,80.0,,,3.0,0.0,TO_RENOVATE,213.0,2.0,1.0,2.0,1.058
139,11156775,Sainte-Ode,6680,Place de l'Eglise,3,50.0531252,5.5107372,HOUSE,MIXED_USE_BUILDING,579000.0,BUY_REGULAR,,884.0,HYPER_EQUIPPED,1.0,0.0,0,1.0,,1.0,4200.0,,,3.0,0.0,GOOD,5200.0,3.0,1.0,0.0,
140,11143954,Gentbrugge,9050,Rode-Kruisstraat,5-9,51.0284723,3.7641375,HOUSE_GROUP,HOUSE_GROUP,,BUY_REGULAR,,,,,,0,,,,,,,,,,,45.0,7.0,4.0,0.691
141,11140901,Nazareth,9810,Hoogkouter,1,50.9542109,3.6350241,HOUSE_GROUP,HOUSE_GROUP,,BUY_REGULAR,,,,,,0,,,,,,,,,,,4.0,0.0,1.0,2.494
142,11150716,Overijse,3090,Vergoeienveld,3,50.7637055,4.5363566,HOUSE,VILLA,849000.0,BUY_REGULAR,,334.0,USA_INSTALLED,1.0,,1,1.0,35.0,1.0,350.0,,,4.0,0.0,AS_NEW,875.0,10.0,2.0,5.0,0.936
143,11140831,Gent Mariakerke,9030,Speistraat,16,51.0856034,3.6659281,HOUSE_GROUP,HOUSE_GROUP,,BUY_REGULAR,,,,,,0,,,,,,,,,,,13.0,1.0,0.0,
144,11141224,Herstal,4040,Rue sur les Thiers,113,50.6694204,5.6122958,HOUSE,HOUSE,299000.0,BUY_REGULAR,,145.0,USA_INSTALLED,1.0,0.0,0,1.0,66.0,1.0,98.0,,,2.0,1.0,AS_NEW,275.0,5.0,3.0,0.0,
145,11140958,Ronse,9600,Adolphe Hullebroeckstraat,9,50.7391281,3.6204284,HOUSE,VILLA,309000.0,BUY_REGULAR,,190.0,HYPER_EQUIPPED,1.0,0.0,0,1.0,18.0,1.0,240.0,,,3.0,0.0,AS_NEW,343.0,1.0,0.0,1.0,1.411
146,11143169,Puurs,2870,Hoogstraat,79,51.075917,4.2812197,HOUSE,MIXED_USE_BUILDING,449000.0,BUY_REGULAR,,150.0,INSTALLED,1.0,,0,1.0,25.0,1.0,35.0,,,2.0,0.0,JUST_RENOVATED,145.0,22.0,6.0,2.0,0.247
147,11159700,Elsene,1050,Rue Souveraine,29,50.833002,4.3645631,APARTMENT,APARTMENT,450000.0,BUY_REGULAR,,90.0,HYPER_EQUIPPED,1.0,0.0,0,1.0,20.0,1.0,10.0,,,2.0,0.0,AS_NEW,,890.0,342.0,27.0,0.16
148,11141759,Eigenbrakel,1420,Rue michel botte,76,50.6684911,4.3514306,HOUSE,HOUSE,349000.0,BUY_REGULAR,,135.0,USA_INSTALLED,1.0,0.0,0,1.0,,1.0,156.0,,,2.0,0.0,JUST_RENOVATED,216.0,4.0,2.0,0.0,
149,11142081,Londerzeel,1840,Holle Eikstraat,3,51.0134685,4.3056204,HOUSE,HOUSE,370000.0,BUY_REGULAR,,147.0,INSTALLED,1.0,,0,,,1.0,600.0,,,4.0,0.0,GOOD,881.0,6.0,2.0,2.0,0.84
150,11159698,WILRIJK,2610,Sneeuwbeslaan,6,51.1753744,4.3971476,APARTMENT,APARTMENT,495000.0,BUY_REGULAR,,181.0,SEMI_EQUIPPED,1.0,,0,1.0,20.0,,,,,,,TO_BE_DONE_UP,,31.0,4.0,9.0,0.772
151,11159696,Menen,8930,,,,,HOUSE,HOUSE,89000.0,BUY_REGULAR,10.0,142.0,,1.0,,0,,,1.0,105.0,,,2.0,,TO_RENOVATE,180.0,,,,
152,11159697,Uccle,1180,Avenue Winston Churchill 79,,50.8115348,4.354716,APARTMENT,FLAT_STUDIO,199000.0,BUY_REGULAR,,36.0,INSTALLED,1.0,0.0,0,,,,,,,2.0,,,,158.0,48.0,13.0,0.635
153,11159688,Vilvoorde,1800,Perksestraat,235,50.9278586,4.4451744,HOUSE,HOUSE,325000.0,BUY_REGULAR,1.0,135.0,,,,0,,,,,,,2.0,,,236.0,16.0,8.0,7.0,0.276
154,11159676,Willebroek,2830,Nieuwstraat,"5,0002",51.060599,4.3605919,APARTMENT,APARTMENT,145000.0,BUY_REGULAR,,109.0,,,,0,1.0,,,,,,,,TO_RENOVATE,,27.0,5.0,2.0,0.473
155,11159675,Zoutleeuw,3440,Dorpsstraat,30,50.8056752,5.1065102,HOUSE,HOUSE,159000.0,BUY_REGULAR,,143.0,,,0.0,0,,,,,,,3.0,0.0,,134.0,2.0,2.0,0.0,
156,11159691,Merelbeke,9820,Hundelgemsesteenweg,33 001,50.9935079,3.7469049,APARTMENT,APARTMENT,299999.0,BUY_REGULAR,1.0,85.0,,,,0,,,1.0,18.0,,,,,GOOD,,24.0,2.0,1.0,0.488
157,11142044,Aarlen,6700,Rue des Blancs Prés,1,49.6923475,5.8072139,HOUSE_GROUP,HOUSE_GROUP,,BUY_REGULAR,,,,,,0,,,,,,,,,,,100.0,26.0,2.0,0.609
158,11159690,Gent,9000,Sint-Katelijnestraat,16,51.0590626,3.7280884,HOUSE,MIXED_USE_BUILDING,895000.0,BUY_REGULAR,1.0,561.0,,,,0,,,1.0,30.0,,,2.0,,TO_RENOVATE,264.0,617.0,262.0,25.0,0.126
159,11159689,JUPRELLE,4450,Rue Toussaint,255,50.7156883,5.5793222,APARTMENT_GROUP,APARTMENT_GROUP,,BUY_REGULAR,,,,,,0,,,,,,,,,,,6.0,0.0,0.0,
160,11159683,RONSE,9600,Frédéric Bruneellaan,24/0201,50.7445288,3.593923,APARTMENT,APARTMENT,274000.0,BUY_REGULAR,,101.0,INSTALLED,1.0,,0,1.0,,,,,,,,GOOD,,16.0,13.0,2.0,0.698
161,11159687,Mechelen,2800,Hendrik Speecqvest,42 7,51.0214705,4.4832824,APARTMENT,APARTMENT,245000.0,BUY_REGULAR,1.0,90.0,,,,0,,,,,,,,,,,235.0,71.0,2.0,0.435
162,11159695,Merchtem,1785,Langevelde,48,50.9633023,4.2490882,HOUSE,FARMHOUSE,595000.0,BUY_REGULAR,1.0,,,,,0,1.0,,,,,,,,,1280.0,11.0,1.0,1.0,1.38
163,11159678,Zottegem,9620,,,,,HOUSE,HOUSE,395000.0,BUY_REGULAR,,210.0,HYPER_EQUIPPED,1.0,0.0,0,1.0,15.0,1.0,,,,3.0,,AS_NEW,427.0,,,,
164,11159674,Westende,8434,Westenlaan,3,51.1698597,2.7725004,APARTMENT,APARTMENT,275000.0,BUY_REGULAR,,72.0,HYPER_EQUIPPED,1.0,1.0,0,,,,,,,2.0,0.0,,,8.0,13.0,0.0,
165,11159672,Temse,9140,Philippe Saveryslaan,195,51.1213668,4.2056612,APARTMENT,GROUND_FLOOR,364000.0,BUY_REGULAR,1.0,90.0,,1.0,,0,,,1.0,50.0,,,,,GOOD,,19.0,3.0,1.0,0.704
166,11159666,Oudergem,1160,,,,,APARTMENT,APARTMENT,249000.0,BUY_REGULAR,,77.0,,1.0,0.0,0,1.0,17.0,,,,,,0.0,TO_BE_DONE_UP,,,,,
167,11159659,Moeskroen,7700,,,,,HOUSE,HOUSE,595000.0,BUY_REGULAR,,490.0,INSTALLED,1.0,0.0,0,1.0,,1.0,435.0,,,3.0,0.0,AS_NEW,867.0,,,,
168,11159671,ROCOURT,4000,Rue François Lefebvre,162,50.6833195,5.5492505,APARTMENT,APARTMENT,319000.0,BUY_REGULAR,,143.0,INSTALLED,1.0,,1,1.0,22.0,,,,,,,,,5.0,5.0,0.0,
169,11159664,Woluwe-Saint-Pierre,1150,Avenue Xavier Henrard,35,50.8275519,4.4212435,HOUSE,HOUSE,1895000.0,BUY_REGULAR,8.0,290.0,HYPER_EQUIPPED,1.0,0.0,0,1.0,,1.0,700.0,,,4.0,1.0,GOOD,700.0,75.0,21.0,9.0,0.464
170,11159655,Nijvel,1400,,,,,APARTMENT,APARTMENT,250000.0,BUY_REGULAR,,90.0,INSTALLED,1.0,0.0,0,1.0,13.0,,,,,2.0,0.0,JUST_RENOVATED,,,,,
171,11159673,Wandre,4020,,,,,HOUSE,APARTMENT_BLOCK,525000.0,BUY_REGULAR,16.0,,NOT_INSTALLED,1.0,0.0,0,,,,,,,,0.0,TO_RENOVATE,913.0,,,,
172,11159670,Antwerpen,2660,,,,,APARTMENT,APARTMENT,349000.0,BUY_REGULAR,,115.0,HYPER_EQUIPPED,1.0,,1,1.0,20.0,,,,,3.0,,GOOD,,,,,
173,11159652,Dilbeek Sint-Ulriks-Kapelle,1700,Brusselstraat,654,50.8795112,4.2204325,HOUSE_GROUP,HOUSE_GROUP,,BUY_REGULAR,,,,,,0,,,,,,,,,,,1.0,0.0,0.0,
174,11159650,Middelkerke,8432,Wielewaalstraat,18,51.1750881,2.8821083,HOUSE,HOUSE,299000.0,BUY_REGULAR,1.0,160.0,,,,0,1.0,,,,,,4.0,,GOOD,488.0,3.0,2.0,0.0,
175,11159647,Virton,6760,Avenue Bouvier,34,49.5661364,5.5277797,HOUSE,HOUSE,270000.0,BUY_REGULAR,,208.0,SEMI_EQUIPPED,1.0,,0,,,,,,,3.0,,TO_BE_DONE_UP,210.0,34.0,6.0,1.0,0.124
176,11159649,Sint-Andries,8200,Zandstraat,65,51.1938291,3.151346,HOUSE,HOUSE,369000.0,BUY_REGULAR,1.0,120.0,,,,0,1.0,,,,,,4.0,,GOOD,118.0,6.0,3.0,0.0,
177,11159657,Blankenberge,8370,J. Gadeynehelling,1,51.3189686,3.1408417,APARTMENT,GROUND_FLOOR,160000.0,BUY_REGULAR,1.0,48.0,,1.0,,0,,,,,,,,,GOOD,,197.0,50.0,2.0,1.394
178,11159646,Zottegem,9620,Brakelstraat,46,50.8329208,3.7911143,HOUSE,HOUSE,325000.0,BUY_REGULAR,1.0,180.0,,,,0,1.0,,,,,,4.0,,GOOD,238.0,4.0,1.0,1.0,0.305
179,11159645,ANTWERPEN,2100,Alfons Schneiderlaan,174,51.2261479,4.4730484,APARTMENT,APARTMENT,248000.0,BUY_REGULAR,,80.0,,,,0,,,,,,,,,,,26.0,8.0,4.0,0.326
180,11138945,Wellen,3830,De Rijten,zn,50.8418734,5.3320168,HOUSE_GROUP,HOUSE_GROUP,,BUY_REGULAR,,,,,,0,,,,,,,,,,,9.0,0.0,0.0,
181,11140830,Gent,9000,Achilles Musschestraat,47,51.0328091,3.7193036,HOUSE,VILLA,735000.0,BUY_REGULAR,,272.0,INSTALLED,1.0,0.0,0,1.0,,,,,,3.0,0.0,TO_BE_DONE_UP,430.0,138.0,47.0,17.0,0.496
182,11149928,Sint-Martens-Latem,9830,Brandstraat,75,51.0056338,3.6236227,HOUSE,HOUSE,595000.0,BUY_REGULAR,,124.0,USA_HYPER_EQUIPPED,1.0,0.0,0,,,1.0,188.0,,,3.0,0.0,JUST_RENOVATED,386.0,39.0,8.0,2.0,1.209
183,11140491,Edegem,2650,Ter Tommenstraat,3,51.1639134,4.426546,HOUSE,HOUSE,1545000.0,BUY_REGULAR,,360.0,HYPER_EQUIPPED,1.0,,1,,,1.0,315.0,,,4.0,,JUST_RENOVATED,703.0,18.0,5.0,3.0,1.472
184,11154075,Xhoris,4190,Place La Vaux,6,50.4441209,5.6020715,HOUSE,HOUSE,238000.0,BUY_REGULAR,,161.0,SEMI_EQUIPPED,1.0,0.0,0,1.0,,,,,,3.0,0.0,TO_BE_DONE_UP,237.0,0.0,0.0,0.0,
185,11141660,Elsene,1050,Rue du Printemps,,50.8200002,4.3875776,HOUSE_GROUP,HOUSE_GROUP,,BUY_REGULAR,,,,,,0,,,,,,,,,,,304.0,92.0,12.0,0.494
186,11143235,Bachte-Maria-Leerne,9800,Leernsesteenweg,110,51.004744,3.5650699,HOUSE_GROUP,HOUSE_GROUP,,BUY_REGULAR,,,,,,0,,,,,,,,,,,2.0,0.0,1.0,2.071
187,10635076,Rekkem,8930,Dronckaertstraat,105,50.7717965,3.1684884,HOUSE_GROUP,HOUSE_GROUP,,BUY_REGULAR,,,,,,0,,,,,,,,,,,14.0,3.0,0.0,
188,11139673,Diets-Heur,3700,Kuilenberg,8,50.7433408,5.4847291,HOUSE,HOUSE,110000.0,PUBLIC_SALE,,110.0,INSTALLED,1.0,,0,1.0,20.0,1.0,118.0,,,2.0,,TO_BE_DONE_UP,230.0,0.0,0.0,0.0,
189,11149967,Antwerpen Borgerhout,2140,Karel Geertsstraat,61,51.2172148,4.4437081,HOUSE,MANSION,495000.0,BUY_REGULAR,,198.0,HYPER_EQUIPPED,1.0,,0,1.0,6.0,,,,,2.0,0.0,AS_NEW,79.0,217.0,43.0,19.0,0.841
190,11032080,Dendermonde,9200,Lambroeckstraat,92,51.0076475,4.0564681,HOUSE_GROUP,HOUSE_GROUP,,BUY_REGULAR,,,,,,0,,,,,,,,,,,1.0,1.0,0.0,
191,10352768,Petit-Enghien,7850,rue Brigade Piron,,50.6900623,4.0908822,HOUSE_GROUP,HOUSE_GROUP,,BUY_REGULAR,,,,,,0,,,,,,,,,,,1.0,0.0,1.0,2.233
192,10904896,Meerhout,2450,Mispad,5,51.1310443,5.0807043,HOUSE_GROUP,HOUSE_GROUP,,BUY_REGULAR,,,,,,0,,,,,,,,,,,19.0,2.0,0.0,
193,9546061,Gent,9000,Michel Thieryhof,,51.065314,3.7233867,HOUSE_GROUP,HOUSE_GROUP,,BUY_REGULAR,,,,,,0,,,,,,,,,,,335.0,141.0,18.0,0.186
194,11159157,Brakel,9660,Hollebeekstraat,11,50.7854956,3.7982763,HOUSE,HOUSE,498500.0,BUY_REGULAR,,234.0,USA_HYPER_EQUIPPED,1.0,0.0,0,1.0,30.0,1.0,24.0,,,3.0,0.0,,171.0,0.0,0.0,0.0,
195,11159159,Brakel,9660,Hollebeekstraat,11,50.7854956,3.7982763,HOUSE,HOUSE,395000.0,BUY_REGULAR,,144.0,USA_HYPER_EQUIPPED,1.0,0.0,0,1.0,20.0,1.0,102.0,,,3.0,0.0,,196.0,0.0,0.0,0.0,
196,10809268,Kieldrecht,9130,Lange Nieuwstraat,34,51.2805652,4.1798647,HOUSE_GROUP,HOUSE_GROUP,,BUY_REGULAR,,,,,,0,,,,,,,,,,,10.0,1.0,0.0,
197,11144467,CHÊNÉE,4032,Rue des Grands Prés,262,50.6049244,5.6235864,HOUSE,HOUSE,85000.0,BUY_REGULAR,,140.0,NOT_INSTALLED,1.0,,0,1.0,13.0,1.0,40.0,,,,0.0,TO_RENOVATE,149.0,38.0,9.0,1.0,1.729
198,11159156,Brakel,9660,Hollebeekstraat,11,50.7854956,3.7982763,HOUSE,HOUSE,398000.0,BUY_REGULAR,,144.0,USA_HYPER_EQUIPPED,1.0,0.0,0,1.0,22.0,1.0,156.0,,,2.0,0.0,,249.0,0.0,0.0,0.0,
199,11138241,Merelbeke,9820,Grepstraat,101,50.9653549,3.7183891,HOUSE,HOUSE,498000.0,BUY_REGULAR,,134.0,INSTALLED,1.0,0.0,0,1.0,77.0,1.0,624.0,,,3.0,,JUST_RENOVATED,758.0,1.0,0.0,0.0,
200,11139442,SELANGE,6781,Rue des Roses,1,49.6081571,5.8503305,HOUSE,HOUSE,420000.0,BUY_REGULAR,,200.0,INSTALLED,1.0,,0,1.0,29.0,,,,,4.0,0.0,GOOD,1019.0,0.0,0.0,0.0,
201,11138848,Gent,9040,Kasteelwegel,10,51.0669258,3.7795833,HOUSE,HOUSE,595000.0,BUY_REGULAR,,201.0,INSTALLED,1.0,,0,1.0,10.0,1.0,70.0,,,3.0,0.0,JUST_RENOVATED,338.0,33.0,8.0,5.0,0.76
202,11137886,Deinze Astene,9800,Den Bunker,1,50.9825758,3.5697702,HOUSE_GROUP,HOUSE_GROUP,,BUY_REGULAR,,,,,,0,,,,,,,,,,,18.0,5.0,0.0,
203,11149191,Nieuwpoort,8620,Marktstraat,12,51.1315984,2.7523411,HOUSE,MIXED_USE_BUILDING,495000.0,BUY_REGULAR,,325.0,INSTALLED,1.0,,0,1.0,27.0,,,,,2.0,0.0,GOOD,170.0,28.0,22.0,0.0,
204,11149134,Etterbeek,1040,Avenue Nouvelle,33,50.8293698,4.3813154,HOUSE,APARTMENT_BLOCK,1190000.0,BUY_REGULAR,,400.0,INSTALLED,1.0,0.0,0,1.0,10.0,1.0,50.0,,,2.0,0.0,TO_BE_DONE_UP,210.0,529.0,188.0,17.0,0.636
205,11149707,Etterbeek,1040,Edouard Lacomblélaan,24,50.8318278,4.4095438,HOUSE,APARTMENT_BLOCK,1399000.0,BUY_REGULAR,,550.0,INSTALLED,1.0,0.0,0,1.0,28.0,1.0,155.0,,,3.0,0.0,GOOD,469.0,226.0,47.0,12.0,0.548
206,11149131,Vorst,1190,Avenue Van Volxem,397,50.8261334,4.3270263,HOUSE,MIXED_USE_BUILDING,690000.0,BUY_REGULAR,,700.0,USA_HYPER_EQUIPPED,1.0,0.0,0,1.0,90.0,,,,,2.0,0.0,TO_RENOVATE,271.0,150.0,34.0,23.0,0.51
207,11159645,ANTWERPEN,2100,Alfons Schneiderlaan,174,51.2261479,4.4730484,APARTMENT,APARTMENT,248000.0,BUY_REGULAR,,80.0,,,,0,,,,,,,,,,,26.0,8.0,4.0,0.326
208,11149726,Ukkel,1180,Franz Merjaystraat,206,50.8141822,4.3517147,HOUSE,APARTMENT_BLOCK,1000000.0,BUY_REGULAR,,325.0,INSTALLED,1.0,0.0,0,1.0,50.0,1.0,50.0,,,2.0,0.0,TO_BE_DONE_UP,155.0,212.0,92.0,15.0,0.306
209,11159641,Luik,4020,Rue des Prébendiers,16,50.6360569,5.5897251,HOUSE,HOUSE,499000.0,BUY_REGULAR,,310.0,INSTALLED,1.0,,1,1.0,14.0,1.0,135.0,,,2.0,0.0,AS_NEW,315.0,145.0,72.0,5.0,0.503
210,11159637,Bruxelles,1000,,,,,HOUSE,HOUSE,1295000.0,BUY_REGULAR,,402.0,SEMI_EQUIPPED,1.0,0.0,0,,,,,,,2.0,0.0,TO_RENOVATE,120.0,,,,
211,11149725,Woluwe-Saint-Pierre,1150,Edouard Lacomblélaan,24,50.8318278,4.4095438,HOUSE,APARTMENT_BLOCK,1399000.0,BUY_REGULAR,,550.0,INSTALLED,1.0,0.0,0,1.0,28.0,1.0,155.0,,,3.0,0.0,GOOD,469.0,226.0,47.0,12.0,0.548
212,11149529,Antwerpen,2000,Lange Doornikstraat,15,51.2226997,4.4005671,HOUSE,APARTMENT_BLOCK,535000.0,BUY_REGULAR,,120.0,SEMI_EQUIPPED,1.0,0.0,0,,,,,,,2.0,0.0,GOOD,32.0,917.0,303.0,16.0,0.821
213,11159638,Anderlecht,1070,Avenue Gounod,15,50.8318273,4.3014943,APARTMENT,APARTMENT,179000.0,BUY_REGULAR,,80.0,USA_HYPER_EQUIPPED,1.0,0.0,0,1.0,33.0,,,,,2.0,0.0,GOOD,,63.0,15.0,21.0,0.292
214,11159646,Zottegem,9620,Brakelstraat,46,50.8329208,3.7911143,HOUSE,HOUSE,325000.0,BUY_REGULAR,1.0,180.0,,,,0,1.0,,,,,,4.0,,GOOD,238.0,4.0,1.0,1.0,0.305
215,11159636,Willebroek,2830,Nieuwstraat,"5,0001",51.0608573,4.3607323,APARTMENT,APARTMENT,145000.0,BUY_REGULAR,,86.0,,,,0,,,,,,,,,TO_RENOVATE,,28.0,5.0,2.0,0.444
216,11059711,Westerlo (Zoerle-Parwijs),2260,Zoerleberg,32,51.0839948,4.8778075,HOUSE,HOUSE,330000.0,BUY_REGULAR,,204.0,,,0.0,0,,,,,,,4.0,0.0,,2300.0,3.0,4.0,0.0,
217,11159634,Stembert,4801,Rue du rwanda,16,50.5857024,5.8939176,HOUSE,HOUSE,279000.0,BUY_REGULAR,,102.0,INSTALLED,1.0,0.0,0,1.0,21.0,1.0,235.0,,,3.0,0.0,GOOD,314.0,7.0,2.0,1.0,1.834
218,11159633,Tubeke,1480,,,,,HOUSE,HOUSE,369000.0,BUY_REGULAR,,200.0,INSTALLED,1.0,0.0,0,1.0,69.0,1.0,250.0,,,2.0,0.0,GOOD,380.0,,,,
219,11159631,TIENEN,3300,,,,,APARTMENT,APARTMENT,50000.0,LIFE_ANNUITY,,120.0,INSTALLED,1.0,,0,1.0,,,,,,2.0,,GOOD,,,,,
220,11159617,Ieper,8900,De Montstraat,1,50.8489081,2.8834235,APARTMENT,APARTMENT,245000.0,BUY_REGULAR,3.0,100.0,,,,0,,,,,,,,,GOOD,,35.0,17.0,2.0,0.812
221,11159620,Saint-Nicolas,4420,Rue de la Houillére,55,50.6264572,5.5433411,HOUSE,HOUSE,210000.0,BUY_REGULAR,,116.0,SEMI_EQUIPPED,1.0,0.0,0,1.0,15.0,1.0,43.0,,,2.0,0.0,GOOD,110.0,9.0,2.0,6.0,0.911
222,11159630,TIENEN,3300,,,,,APARTMENT,PENTHOUSE,50000.0,LIFE_ANNUITY,,120.0,INSTALLED,1.0,,0,1.0,,,,,,2.0,,GOOD,,,,,
223,11159603,Machelen Diegem,1831,Haachtsesteenweg,29,50.8977549,4.4352458,APARTMENT,GROUND_FLOOR,325000.0,BUY_REGULAR,,95.0,,,0.0,0,1.0,36.0,1.0,100.0,,,2.0,,,,19.0,10.0,5.0,0.21
224,11159612,Tintigny,6730,,,,,HOUSE,HOUSE,334215.0,BUY_REGULAR,,130.0,,,,0,,,1.0,,,,4.0,,,1959.0,,,,
225,11159605,Namur Malonne,5020,,,,,HOUSE,HOUSE,384500.0,BUY_REGULAR,,160.0,NOT_INSTALLED,1.0,,0,,,1.0,2838.0,,,4.0,,,2838.0,,,,
226,11159610,ZULTE,9870,Oeselgemstraat,155/B,50.9331509,3.4333582,APARTMENT,LOFT,388000.0,BUY_REGULAR,,210.0,INSTALLED,1.0,,0,,,,,,,4.0,,,,1.0,0.0,0.0,
227,11159613,Olne,4877,"Rue Bouteille, 2",,50.5911713,5.7521175,HOUSE,BUNGALOW,299000.0,BUY_REGULAR,,111.0,INSTALLED,1.0,0.0,0,1.0,19.0,,,,,4.0,,,3508.0,2.0,1.0,1.0,2.248
228,11159609,ZULTE,9870,Oeselgemstraat,155/A,50.9331652,3.4333823,APARTMENT,LOFT,487000.0,BUY_REGULAR,,178.0,INSTALLED,1.0,,0,1.0,,,,,,4.0,,,,1.0,0.0,0.0,
229,11159606,Soye,5150,Rue Malincroix,10,50.4506382,4.7430108,HOUSE,TOWN_HOUSE,392500.0,BUY_REGULAR,,150.0,USA_UNINSTALLED,1.0,0.0,0,,,1.0,,,,4.0,,,895.0,0.0,0.0,0.0,
230,11159623,Eeklo,9900,Hospitaalstraat,47,51.1805181,3.5766782,HOUSE,HOUSE,189000.0,BUY_REGULAR,,166.0,INSTALLED,1.0,0.0,0,1.0,,,,,,2.0,0.0,,316.0,40.0,7.0,0.0,
231,11159604,Veurne,8630,Zuidstraat,37,51.0696044,2.6625845,HOUSE,MANOR_HOUSE,375000.0,BUY_REGULAR,,298.0,,,0.0,0,1.0,,,,,,2.0,0.0,,163.0,11.0,5.0,0.0,
232,11159601,BERCHEM,2600,Terlinckstraat,72,51.1945234,4.4135011,HOUSE,EXCEPTIONAL_PROPERTY,649000.0,BUY_REGULAR,,234.0,INSTALLED,1.0,,0,,,,,,,2.0,,,0.0,156.0,53.0,15.0,0.62
233,11159599,Schaarbeek,1030,AVENUE CLAYS,,50.8542593,4.3813263,HOUSE,APARTMENT_BLOCK,850000.0,BUY_REGULAR,,382.0,HYPER_EQUIPPED,1.0,0.0,0,1.0,,1.0,70.0,,,2.0,0.0,GOOD,382.0,334.0,135.0,29.0,0.362
234,11159587,Hemiksem,2620,Terlochtweg,16,51.1508418,4.3386952,HOUSE,HOUSE,193000.0,BUY_REGULAR,,,,,,0,,,,,,,2.0,,TO_RENOVATE,203.0,8.0,3.0,0.0,
235,11075780,Jemeppe-sur-Sambre,5190,appeler le 0470438319 pour visiter rue François Hittelet,169,50.4568458,4.6616565,HOUSE,HOUSE,209000.0,BUY_REGULAR,,140.0,,,,0,1.0,,,,,,2.0,,GOOD,0.0,5.0,1.0,0.0,
236,11157829,Rhode-Saint-Genèse,1640,Hof-ten-Berg,25,50.7434264,4.3643587,HOUSE,HOUSE,395000.0,BUY_REGULAR,,100.0,SEMI_EQUIPPED,1.0,0.0,0,1.0,,,,,,3.0,0.0,TO_RENOVATE,473.0,1.0,0.0,0.0,
237,11159586,Aalter,9880,Hoefijzer,22,51.092501,3.4453839,APARTMENT,APARTMENT,220000.0,BUY_REGULAR,,91.0,,1.0,0.0,0,1.0,,,,,,2.0,0.0,,,95.0,11.0,1.0,0.33
238,11159590,Beersel,1651,,,,,HOUSE,HOUSE,329500.0,BUY_REGULAR,11.0,137.0,USA_INSTALLED,1.0,,1,1.0,1.0,1.0,1.0,,,2.0,0.0,AS_NEW,380.0,,,,
239,11151339,Assebroek,8310,Vrijheidsstraat,46,51.1975314,3.2343613,HOUSE,HOUSE,365000.0,BUY_REGULAR,,152.0,HYPER_EQUIPPED,1.0,0.0,1,1.0,25.0,1.0,91.0,,,2.0,,GOOD,200.0,144.0,75.0,0.0,
240,11159600,Waregem Beveren,8791,Kortrijkseweg,344,50.8789838,3.3574659,HOUSE,HOUSE,299000.0,BUY_REGULAR,,320.0,HYPER_EQUIPPED,1.0,,0,1.0,,1.0,700.0,,,2.0,,GOOD,0.0,15.0,1.0,0.0,
241,11156705,Zoersel,2980,Eikenlaan,2,51.2461334,4.6266725,HOUSE,MIXED_USE_BUILDING,639000.0,BUY_REGULAR,,635.0,NOT_INSTALLED,1.0,,0,1.0,,,,,,4.0,0.0,TO_RENOVATE,3451.0,1.0,1.0,1.0,2.264
242,11159585,Glabbeek,3384,Torenstraat,41,50.8657421,4.9242275,HOUSE,HOUSE,399000.0,BUY_REGULAR,,190.0,,1.0,0.0,0,,,1.0,2673.0,,,4.0,0.0,,2673.0,1.0,0.0,0.0,
243,11158197,Puurs-Sint-Amands,2870,Dendermondsesteenweg,227,51.043845,4.269932,HOUSE,HOUSE,795000.0,BUY_REGULAR,,273.0,,,0.0,0,1.0,,1.0,4000.0,,,4.0,,GOOD,4458.0,3.0,0.0,0.0,
244,11135548,Ronse,9600,Rotterij,282,50.7419271,3.633878,HOUSE,VILLA,259000.0,BUY_REGULAR,,165.0,SEMI_EQUIPPED,1.0,0.0,0,1.0,30.0,1.0,351.0,,,3.0,0.0,TO_RENOVATE,674.0,1.0,0.0,0.0,
245,11137426,Beervelde,9080,Toleindestraat,134,51.0805477,3.8911797,HOUSE_GROUP,HOUSE_GROUP,,BUY_REGULAR,,,,,,0,,,,,,,,,,,7.0,4.0,0.0,
246,11135545,Zottegem,9620,Steenweg Op Aalst,127,50.8978177,3.8333949,HOUSE,VILLA,645000.0,BUY_REGULAR,,272.0,INSTALLED,1.0,0.0,0,1.0,26.0,1.0,2327.0,,,4.0,,GOOD,2627.0,2.0,0.0,1.0,0.292
247,11157604,Ukkel,1180,Avenue Moscicki,21,50.8070912,4.3630153,HOUSE,VILLA,1390000.0,BUY_REGULAR,,270.0,HYPER_EQUIPPED,1.0,0.0,0,1.0,23.0,1.0,490.0,,,4.0,,GOOD,620.0,76.0,23.0,8.0,1.399
248,11156424,Welkenraedt Henri-Chapelle,4841,du Village,29,50.669138,5.9271962,HOUSE,HOUSE,890000.0,BUY_REGULAR,,547.0,INSTALLED,1.0,,0,1.0,,,,,,4.0,0.0,TO_BE_DONE_UP,1685.0,3.0,2.0,0.0,
249,11146521,Laeken,1020,Dikke-Beuklaan,177,50.8932461,4.3150534,HOUSE,BUNGALOW,410000.0,BUY_REGULAR,,137.0,USA_SEMI_EQUIPPED,1.0,,0,1.0,,1.0,300.0,,,4.0,,TO_RENOVATE,497.0,30.0,16.0,8.0,1.122
250,11146779,Graide,5555,Rue de la Violette,8,49.9504826,5.0644021,HOUSE,HOUSE,159000.0,BUY_REGULAR,,143.0,NOT_INSTALLED,1.0,,1,,,,,,,3.0,,GOOD,120.0,0.0,0.0,0.0,
251,11135530,Brakel,9660,Hollebeekstraat,11,50.7854956,3.7982763,HOUSE_GROUP,HOUSE_GROUP,,BUY_REGULAR,,,,,,0,,,,,,,,,,,0.0,0.0,0.0,
252,11135496,Gent,9050,Rode-Kruisstraat,5-9,51.0284723,3.7641375,HOUSE_GROUP,HOUSE_GROUP,,BUY_REGULAR,,,,,,0,,,,,,,,,,,45.0,7.0,4.0,0.691
253,11101159,Geraardsbergen,9500,IJsbroekstraat,13,50.7985897,3.8934112,HOUSE,HOUSE,259000.0,BUY_REGULAR,,200.0,,1.0,0.0,0,1.0,40.0,1.0,145.0,,,3.0,,GOOD,385.0,0.0,0.0,0.0,
254,11146239,Elsene,1050,Rue des Deux Ponts,10,50.8321838,4.3780254,HOUSE,HOUSE,395000.0,BUY_REGULAR,,100.0,HYPER_EQUIPPED,1.0,0.0,0,,,,,,,2.0,0.0,GOOD,48.0,611.0,263.0,19.0,0.756
255,11148599,Zottegem,9620,Léon Lefèvrestraat,42,50.8645951,3.8153459,HOUSE,HOUSE,125000.0,BUY_REGULAR,14.0,99.0,,1.0,,0,1.0,,,,,,2.0,,TO_RENOVATE,90.0,11.0,8.0,2.0,0.477
256,11146707,Wezembeek-Oppem,1970,De Grunnelaan - Avenue De Grunne,41,50.8402527,4.4887872,HOUSE,HOUSE,455000.0,BUY_REGULAR,,140.0,INSTALLED,1.0,,1,1.0,12.0,1.0,100.0,,,3.0,0.0,GOOD,210.0,26.0,6.0,4.0,1.54
257,11136220,Mortsel,2640,Nieuwelei,13,51.1670993,4.4763554,HOUSE,VILLA,769000.0,BUY_REGULAR,,235.0,INSTALLED,1.0,,1,1.0,30.0,1.0,350.0,,,4.0,0.0,GOOD,585.0,5.0,6.0,5.0,0.137
258,11146155,Turnhout,2300,Steenweg op Baarle-Hertog,44,51.373768,4.9370662,HOUSE,HOUSE,459000.0,BUY_REGULAR,,223.0,USA_INSTALLED,1.0,0.0,0,1.0,80.0,1.0,800.0,,,3.0,,GOOD,970.0,0.0,0.0,0.0,
259,11115192,Hannuit,4280,Rue de Huy,8,50.6674889,5.0861767,HOUSE,MANSION,400000.0,BUY_REGULAR,,343.0,,1.0,0.0,0,1.0,,1.0,1050.0,,,2.0,0.0,GOOD,1413.0,38.0,9.0,0.0,
260,11148058,Oudenburg,8460,Zwaanhoek,"7, A",51.189377,2.99764,HOUSE,HOUSE,633000.0,BUY_REGULAR,,254.0,INSTALLED,1.0,,1,1.0,,,,,,4.0,,GOOD,448.0,14.0,4.0,1.0,0.627
261,11159573,Koksijde,8670,Houtsaegerlaan,49,51.1075275,2.6548471,HOUSE,HOUSE,300000.0,BUY_REGULAR,,155.0,INSTALLED,1.0,,0,1.0,20.0,1.0,,,,4.0,,AS_NEW,471.0,9.0,4.0,2.0,0.657
262,11115195,Hannuit,4280,Rue de Huy,8,50.6674889,5.0861767,HOUSE,MANSION,550000.0,BUY_REGULAR,,433.0,,1.0,0.0,0,1.0,,1.0,1050.0,,,2.0,0.0,GOOD,1413.0,38.0,9.0,0.0,
263,11147360,Wemmel,1780,Chaussée de Bruxelles,18,50.9072031,4.3068515,HOUSE,APARTMENT_BLOCK,725000.0,BUY_REGULAR,,190.0,INSTALLED,1.0,0.0,0,1.0,5.0,,,,,2.0,0.0,GOOD,200.0,52.0,8.0,4.0,0.127
264,11153346,Gentbrugge,9050,Voetbalstraat,105,51.0311445,3.7699417,HOUSE,HOUSE,530000.0,BUY_REGULAR,,161.0,USA_HYPER_EQUIPPED,1.0,0.0,0,1.0,35.0,1.0,400.0,,,4.0,0.0,GOOD,500.0,38.0,5.0,3.0,0.345
265,11154838,Waterloo,1410,Située à proximité du Bois de Hal à BLA,.,50.7121952,4.2694723,HOUSE,VILLA,945000.0,BUY_REGULAR,,240.0,HYPER_EQUIPPED,1.0,0.0,1,1.0,,,,,,4.0,1.0,GOOD,6863.0,4.0,0.0,0.0,
266,11146658,Elsene,1050,Chaussée de Waterloo,417,50.8215527,4.3560377,HOUSE,MIXED_USE_BUILDING,999000.0,BUY_REGULAR,,434.0,USA_INSTALLED,1.0,0.0,0,1.0,15.0,1.0,35.0,,,2.0,0.0,GOOD,190.0,422.0,201.0,22.0,0.936
267,11156316,Deux-Acren,7864,Chevauchoire de Viane,129,50.7221526,3.8510472,HOUSE,FARMHOUSE,270000.0,BUY_REGULAR,15.0,213.0,,,,0,,,,,,,4.0,,TO_RENOVATE,6325.0,0.0,1.0,2.0,1.802
268,11159571,Geel,2440,Poiel,14,51.1580815,4.9776683,HOUSE,HOUSE,549000.0,BUY_REGULAR,,335.0,,,0.0,0,1.0,,,,,,2.0,,,1314.0,141.0,22.0,2.0,1.065
269,11154758,Braine-l'Alleud,1420,A proximité du Bois de Hal,.,50.6966021,4.3199053,HOUSE,VILLA,945000.0,BUY_REGULAR,,240.0,HYPER_EQUIPPED,1.0,0.0,1,1.0,100.0,,,,,4.0,1.0,GOOD,6863.0,22.0,4.0,0.0,
270,10946464,Lommel,3920,Koning Leopoldlaan,63,51.2291893,5.3202807,HOUSE,HOUSE,275000.0,BUY_REGULAR,,259.0,INSTALLED,1.0,,0,,,1.0,350.0,,,4.0,0.0,TO_RESTORE,748.0,56.0,12.0,0.0,
271,11147947,Elsene,1050,Chaussée de Waterloo,417,50.8215527,4.3560377,HOUSE,EXCEPTIONAL_PROPERTY,999000.0,BUY_REGULAR,,434.0,USA_INSTALLED,1.0,0.0,0,1.0,15.0,1.0,35.0,,,2.0,0.0,GOOD,190.0,422.0,201.0,22.0,0.936
272,11159569,Rotselaar Wezemaal,3111,Steenweg op Nieuwrode,158,50.9430097,4.7737772,HOUSE,HOUSE,439000.0,BUY_REGULAR,,320.0,INSTALLED,1.0,0.0,0,1.0,,,,,,3.0,,GOOD,720.0,0.0,0.0,0.0,
273,11159525,Perwijs,1360,,,,,HOUSE,HOUSE,449000.0,BUY_REGULAR,,186.0,,,,1,,,1.0,,,,4.0,,,431.0,,,,
274,11159516,Roeselare,8800,Sint-Michielsstraat,2-4,50.9436528,3.1226372,HOUSE,APARTMENT_BLOCK,550000.0,BUY_REGULAR,,131.0,INSTALLED,1.0,0.0,0,,,,,,,3.0,0.0,GOOD,118.0,343.0,46.0,2.0,0.489
275,11159531,Perwijs,1360,,,,,HOUSE_GROUP,HOUSE_GROUP,,BUY_REGULAR,,,,,,0,,,,,,,,,,,,,,
276,11159522,Seraing,4100,Rue hya,18,50.6007373,5.5121663,HOUSE,HOUSE,199000.0,BUY_REGULAR,,78.0,,1.0,,0,1.0,31.0,1.0,144.0,,,2.0,,GOOD,207.0,7.0,0.0,0.0,
277,11159519,Ledegem,8880,Plaats,2,50.8532686,3.1267332,HOUSE,HOUSE,175000.0,BUY_REGULAR,,270.0,,,0.0,0,1.0,,,,,,4.0,0.0,GOOD,258.0,5.0,1.0,0.0,
278,11159496,Koksijde,8670,Sangattestraat,12,51.1172776,2.6471546,HOUSE,VILLA,1095000.0,BUY_REGULAR,,354.0,HYPER_EQUIPPED,1.0,0.0,0,1.0,,,,,,4.0,0.0,,623.0,116.0,25.0,1.0,1.234
279,11159508,De Panne,8660,Brouwersstraat,62,51.0969419,2.5937043,HOUSE,HOUSE,290000.0,BUY_REGULAR,,236.0,INSTALLED,1.0,1.0,0,,,1.0,12.0,,,3.0,0.0,GOOD,0.0,30.0,30.0,0.0,
280,11159506,De Panne,8660,Zeedijk,85,51.101032,2.5844975,APARTMENT,GROUND_FLOOR,140000.0,BUY_REGULAR,,52.0,INSTALLED,1.0,1.0,0,,,,,,,2.0,0.0,TO_BE_DONE_UP,,29.0,30.0,0.0,
281,11159497,Bruxelles,1080,,,,,HOUSE,HOUSE,620000.0,BUY_REGULAR,5.0,,,1.0,0.0,0,1.0,6.0,,,,,,0.0,TO_BE_DONE_UP,173.0,,,,
282,11159493,Vilvoorde,1800,Davidstraat,21,50.935973,4.4271901,APARTMENT,APARTMENT,280000.0,BUY_REGULAR,,192.0,INSTALLED,1.0,0.0,0,1.0,,,,,,,0.0,AS_NEW,,78.0,29.0,9.0,0.57
283,11159498,Verviers,4800,rue des carrieres,34,50.582589,5.8491874,APARTMENT,APARTMENT,175000.0,BUY_REGULAR,5.0,93.0,INSTALLED,1.0,0.0,0,,,,,,,,0.0,GOOD,,42.0,13.0,2.0,1.237
284,11159511,Roeselare,8800,Hoogleedsesteenweg,415,50.9600138,3.1017125,HOUSE,HOUSE,1750000.0,BUY_REGULAR,,,,,0.0,0,,,,,,,4.0,0.0,GOOD,2904.0,27.0,1.0,2.0,
285,11159492,Zemst,1981,Prinsenstraat,1,50.9911659,4.4923882,HOUSE,HOUSE,365000.0,BUY_REGULAR,,110.0,HYPER_EQUIPPED,1.0,0.0,0,1.0,28.0,,,,,2.0,0.0,JUST_RENOVATED,311.0,14.0,2.0,0.0,
286,11159491,ANTWERPEN,2018,Van Eycklei,21,51.2104379,4.413653,APARTMENT,APARTMENT,450000.0,BUY_REGULAR,,158.0,INSTALLED,1.0,,0,,,,,,,3.0,,GOOD,,1073.0,222.0,22.0,0.289
287,11159460,Maldegem,9990,Bloemestraat,24,51.21216,3.4502567,HOUSE,HOUSE,385000.0,BUY_REGULAR,1.0,203.0,,,,0,1.0,,,,,,3.0,,GOOD,0.0,37.0,8.0,0.0,
288,11159470,Izegem,8870,Prinsessestraat,157,50.9233175,3.2180643,APARTMENT,PENTHOUSE,264000.0,BUY_REGULAR,,90.0,,,0.0,0,1.0,,,,,,3.0,0.0,,,63.0,13.0,0.0,
289,11159495,Turnhout (Turnhout),2300,Duifhuisstraat,20,51.3155901,4.9477146,APARTMENT,APARTMENT,179000.0,BUY_REGULAR,,103.0,,,0.0,0,1.0,,,,,,2.0,0.0,,,27.0,24.0,4.0,1.022
290,11159466,Moeskroen,7700,,,,,APARTMENT,APARTMENT,129000.0,BUY_REGULAR,,82.0,INSTALLED,1.0,0.0,0,1.0,6.0,,,,,4.0,0.0,GOOD,,,,,
291,11159467,FLÉMALLE-HAUTE,4400,Thier des Trixhes,142,50.5989088,5.4587458,HOUSE,HOUSE,169000.0,BUY_REGULAR,,110.0,SEMI_EQUIPPED,1.0,,1,1.0,25.0,1.0,,,,2.0,,TO_RENOVATE,262.0,6.0,3.0,1.0,0.521
292,11159463,Zinnik,7060,,,,,HOUSE,HOUSE,140000.0,BUY_REGULAR,,150.0,SEMI_EQUIPPED,1.0,,1,,,,,,,2.0,,GOOD,100.0,,,,
293,11159457,Wevelgem,8560,,,,,HOUSE,HOUSE,199000.0,BUY_REGULAR,1.0,,,1.0,,0,1.0,,,,,,2.0,,TO_BE_DONE_UP,191.0,,,,
294,11159469,Anderlecht,1070,Avenue Docteur Zamenhof,20,50.8277709,4.3065205,APARTMENT,GROUND_FLOOR,165000.0,BUY_REGULAR,,73.0,,1.0,0.0,0,1.0,6.0,,,,,4.0,0.0,,,51.0,10.0,23.0,0.339
295,11159465,Lebbeke,9280,Laurierstraat,29,50.9990171,4.1294242,HOUSE,HOUSE,397000.0,BUY_REGULAR,,164.0,HYPER_EQUIPPED,1.0,0.0,0,1.0,11.0,,,,,2.0,,AS_NEW,65.0,17.0,9.0,0.0,
296,11159464,Schilde,2970,Wijnegemsteenweg,70,51.2608673,4.5500235,APARTMENT,APARTMENT,349500.0,BUY_REGULAR,,106.0,HYPER_EQUIPPED,1.0,,0,1.0,,,,,,2.0,,GOOD,,31.0,7.0,0.0,
297,11154831,Braine-le-Chateau,1440,Située à proximité du Bois de Hal à BLA,.,50.6966021,4.3199053,HOUSE,VILLA,945000.0,BUY_REGULAR,,240.0,HYPER_EQUIPPED,1.0,0.0,1,1.0,,,,,,4.0,1.0,GOOD,6863.0,22.0,4.0,0.0,
298,11154508,Waterloo,1410,Quartier St-John's,.,50.7047021,4.4150871,HOUSE,VILLA,1750000.0,BUY_REGULAR,,575.0,HYPER_EQUIPPED,1.0,0.0,1,1.0,38.0,1.0,,,,4.0,,AS_NEW,2495.0,62.0,16.0,0.0,
299,11159377,FLÉMALLE,4400,Rue du Village,163,50.6007725,5.4689339,HOUSE,HOUSE,199000.0,BUY_REGULAR,,222.0,NOT_INSTALLED,1.0,,1,,,1.0,140.0,,,2.0,,TO_RESTORE,273.0,5.0,4.0,1.0,0.388
300,11159188,Sint-Pieters-Leeuw,1600,Oude Postweg,23,50.7910354,4.2051264,HOUSE,HOUSE,485000.0,BUY_REGULAR,,212.0,INSTALLED,1.0,0.0,0,1.0,,,,,,4.0,0.0,TO_BE_DONE_UP,603.0,0.0,0.0,0.0,
301,11159271,Wachtebeke,9185,Stationsstraat,35,51.1730313,3.8622803,HOUSE,HOUSE,325000.0,BUY_REGULAR,,139.0,HYPER_EQUIPPED,1.0,0.0,0,1.0,25.0,1.0,250.0,,,2.0,0.0,GOOD,420.0,4.0,1.0,0.0,
302,11159438,Denderhoutem,9450,Zonnestraat,40,50.8785687,4.0126681,HOUSE,HOUSE,698000.0,BUY_REGULAR,1.0,286.0,,,,0,1.0,,,,,,2.0,1.0,GOOD,1056.0,0.0,0.0,0.0,
303,11024429,Paliseul,6850,Rue de Bouillon,16,49.8949076,5.116873,HOUSE,HOUSE,269000.0,BUY_REGULAR,,170.0,INSTALLED,1.0,,1,1.0,,1.0,,,,4.0,,GOOD,879.0,1.0,0.0,0.0,
304,11135086,Beersel,1653,Hanenbosweg,59,50.736537,4.2881229,HOUSE,TOWN_HOUSE,379000.0,BUY_REGULAR,,160.0,HYPER_EQUIPPED,1.0,0.0,0,1.0,35.0,1.0,240.0,,,2.0,0.0,GOOD,650.0,13.0,3.0,0.0,
305,11144176,Ledeberg,9050,Friedrich Froebelstraat,15,51.0361063,3.7408812,HOUSE,HOUSE,295000.0,BUY_REGULAR,,124.0,USA_HYPER_EQUIPPED,1.0,,0,1.0,,,,,,2.0,,GOOD,53.0,100.0,41.0,21.0,0.593
306,11144143,Ninove,9400,Halsesteenweg,381,50.8027211,4.0594096,HOUSE,HOUSE,399000.0,BUY_REGULAR,,273.0,HYPER_EQUIPPED,1.0,0.0,0,1.0,,,,,,2.0,0.0,GOOD,295.0,0.0,0.0,0.0,
307,11155459,Ukkel,1180,Rue de Stalle,178,50.7960701,4.3266107,HOUSE,MIXED_USE_BUILDING,1000000.0,BUY_REGULAR,,470.0,USA_HYPER_EQUIPPED,1.0,0.0,0,,,,,,,2.0,0.0,AS_NEW,504.0,65.0,18.0,10.0,0.652
308,11138017,Galmaarden,1570,Plaatsstraat,2,50.7416777,4.0052618,HOUSE,HOUSE,199000.0,BUY_REGULAR,,308.0,HYPER_EQUIPPED,1.0,,0,,,,,,,4.0,,TO_RENOVATE,600.0,5.0,0.0,0.0,
309,11135101,Seraing,4100,Rue du Chêne,203,50.6013668,5.5164525,HOUSE,MIXED_USE_BUILDING,329000.0,BUY_REGULAR,,110.0,NOT_INSTALLED,1.0,0.0,0,1.0,45.0,1.0,465.0,,,2.0,0.0,TO_RENOVATE,1640.0,7.0,0.0,0.0,
310,11144917,Antwerpen,2060,Duboisstraat,66,51.2290082,4.4194508,HOUSE,HOUSE,419000.0,BUY_REGULAR,,166.0,INSTALLED,1.0,,0,1.0,15.0,,,,,2.0,0.0,GOOD,57.0,363.0,129.0,16.0,0.329
311,11149420,Assebroek,8310,Collegestraat,83,51.2044352,3.2513111,HOUSE,HOUSE,289000.0,BUY_REGULAR,,170.0,INSTALLED,1.0,0.0,1,1.0,25.0,1.0,138.0,,,2.0,,TO_BE_DONE_UP,235.0,71.0,9.0,1.0,1.676
312,11143821,Rixensart,1330,Rue de Nivelles,61,50.7022329,4.5134398,HOUSE,HOUSE,595000.0,BUY_REGULAR,,209.0,USA_SEMI_EQUIPPED,1.0,0.0,0,1.0,10.0,,,,,4.0,0.0,TO_BE_DONE_UP,1160.0,8.0,3.0,0.0,
313,11144209,Terhulpen,1310,Place alphonse favresse,47,50.7377106,4.4958504,HOUSE,HOUSE,645000.0,BUY_REGULAR,,343.0,SEMI_EQUIPPED,1.0,,0,1.0,,,,,,2.0,0.0,GOOD,321.0,10.0,3.0,3.0,0.534
314,11149361,Seraing,4100,Rue Hainchamps,72,50.6010798,5.5079399,HOUSE,HOUSE,179000.0,BUY_REGULAR,,95.0,INSTALLED,1.0,0.0,0,1.0,10.0,1.0,20.0,,,2.0,0.0,GOOD,80.0,6.0,0.0,0.0,
315,10970762,Zwijndrecht,2070,Antwerpsesteenweg,187,51.2091435,4.3477739,HOUSE,HOUSE,395000.0,BUY_REGULAR,,184.0,INSTALLED,1.0,,0,,,1.0,200.0,,,3.0,0.0,GOOD,317.0,6.0,4.0,0.0,
316,11143884,SINT-AMANDSBERG,9040,Sint-Baafskouterstraat,5,51.0579727,3.7534973,HOUSE,HOUSE,775000.0,BUY_REGULAR,,267.0,HYPER_EQUIPPED,1.0,,0,1.0,,1.0,90.0,,,3.0,0.0,AS_NEW,280.0,147.0,19.0,18.0,0.407
317,11157440,MONTEGNÉE,4420,Rue Émile Jeanne,26,50.633649,5.5188395,HOUSE,HOUSE,185000.0,BUY_REGULAR,,158.0,SEMI_EQUIPPED,1.0,,1,,,1.0,60.0,,,3.0,,TO_RENOVATE,177.0,5.0,0.0,2.0,1.152
318,11150595,Erpe-Mere,9420,Kromgrachtstraat,10,50.9466911,3.975558,HOUSE,HOUSE,149000.0,BUY_REGULAR,,126.0,,1.0,0.0,0,1.0,18.0,1.0,90.0,,,3.0,,TO_RENOVATE,296.0,5.0,1.0,0.0,
319,11151904,DEURNE,2100,Sint-Rochusstraat,221 - GLV,51.2041606,4.4639305,HOUSE,MIXED_USE_BUILDING,800000.0,BUY_REGULAR,,223.0,INSTALLED,1.0,,0,,,1.0,450.0,,,2.0,,JUST_RENOVATED,722.0,14.0,6.0,5.0,1.193
320,11151756,Braine-le-Comte,7090,Située à Soignies,.,50.576408,4.0708753,HOUSE,VILLA,695000.0,BUY_REGULAR,,890.0,HYPER_EQUIPPED,1.0,0.0,1,1.0,,1.0,,,,4.0,,GOOD,3143.0,50.0,7.0,1.0,0.667
321,11151732,Soignies,7060,Située à Soignies,.,50.5777389,4.0573135,HOUSE,HOUSE,695000.0,BUY_REGULAR,,890.0,HYPER_EQUIPPED,1.0,0.0,1,1.0,,1.0,,,,4.0,,GOOD,3143.0,40.0,7.0,1.0,1.391
322,11159454,Kortrijk,8500,Marionetten,62,50.7941067,3.2629752,HOUSE,HOUSE,219000.0,BUY_REGULAR,1.0,167.0,,,,0,,,,,,,2.0,,,465.0,1.0,2.0,1.0,2.081
323,11152825,Eeklo,9900,Roze,64,51.1886307,3.5738178,HOUSE,HOUSE,319000.0,BUY_REGULAR,23.0,237.0,INSTALLED,1.0,,0,,,,,,,2.0,,GOOD,520.0,41.0,9.0,0.0,
324,11159452,Beernem,8730,Knesselarestraat,3,51.1686849,3.3393299,HOUSE,HOUSE,385000.0,BUY_REGULAR,1.0,245.0,,,,0,,,,,,,2.0,,GOOD,185.0,11.0,1.0,0.0,
325,11157562,Bredene,8450,Nukkerstraat,144,51.2240917,2.9604139,HOUSE,MIXED_USE_BUILDING,249000.0,BUY_REGULAR,1.0,127.0,,,,0,1.0,8.0,1.0,23.0,,,2.0,,GOOD,87.0,22.0,2.0,0.0,
326,11159451,Beringen,3580,Hekstraat,4,51.0453687,5.2108993,APARTMENT,APARTMENT,319000.0,BUY_REGULAR,1.0,118.0,,1.0,,0,1.0,25.0,,,,,,,GOOD,,58.0,7.0,0.0,
327,11159457,Wevelgem,8560,,,,,HOUSE,HOUSE,199000.0,BUY_REGULAR,1.0,,,1.0,,0,1.0,,,,,,2.0,,TO_BE_DONE_UP,191.0,,,,
328,11159460,Maldegem,9990,Bloemestraat,24,51.21216,3.4502567,HOUSE,HOUSE,385000.0,BUY_REGULAR,1.0,203.0,,,,0,1.0,,,,,,3.0,,GOOD,0.0,37.0,8.0,0.0,
329,11157561,Bredene,8450,Nukkerstraat,142,51.2241199,2.9603572,HOUSE,MIXED_USE_BUILDING,249000.0,BUY_REGULAR,1.0,144.0,,,,0,,,1.0,18.0,,,2.0,,TO_BE_DONE_UP,92.0,22.0,2.0,0.0,
330,11159427,Péruwelz,7600,,,,,HOUSE,HOUSE,215000.0,BUY_REGULAR,,160.0,INSTALLED,1.0,0.0,0,1.0,35.0,,,,,3.0,,,520.0,,,,
331,11159453,Kanegem,8700,Keizerstraat,1 F,51.0139171,3.4021294,HOUSE,HOUSE,298000.0,BUY_REGULAR,1.0,144.0,,1.0,,0,,,1.0,70.0,,,2.0,,GOOD,155.0,4.0,0.0,0.0,
332,11159434,Tournai,7500,,,,,HOUSE,MIXED_USE_BUILDING,245000.0,BUY_REGULAR,,79.0,HYPER_EQUIPPED,1.0,0.0,0,,,,,,,,0.0,GOOD,0.0,,,,
333,11159445,Blegny,4671,,,,,APARTMENT,APARTMENT,249900.0,BUY_REGULAR,7.0,,INSTALLED,1.0,,0,1.0,1.0,,,,,3.0,0.0,AS_NEW,,,,,
334,10825023,Bertrix,6880,Rue de la Petite-Cornée,18,49.8616344,5.2523001,HOUSE,HOUSE,229900.0,BUY_REGULAR,,181.0,INSTALLED,1.0,0.0,0,,,1.0,93.0,,,3.0,0.0,GOOD,222.0,5.0,3.0,0.0,
335,11159450,Harelbeke,8530,,,,,APARTMENT,APARTMENT,175000.0,BUY_REGULAR,10.0,113.0,,1.0,,0,,,1.0,2.0,,,2.0,,GOOD,,,,,
336,11159448,Somme-Leuze,5377,Rue du Pays-du-Roi,10,50.3369008,5.369151,HOUSE,HOUSE,225000.0,BUY_REGULAR,5.0,160.0,,1.0,,1,,,1.0,2135.0,,,,,TO_RESTORE,2135.0,1.0,0.0,0.0,
337,11156771,Genappe Bousval,1470,Avenue des Combattants,168,50.6182024,4.5156891,HOUSE,HOUSE,395000.0,BUY_REGULAR,,194.0,,1.0,0.0,0,1.0,46.0,1.0,200.0,,,3.0,0.0,AS_NEW,306.0,2.0,0.0,2.0,1.669
338,11159429,VICHTE,8570,,,,,APARTMENT_GROUP,APARTMENT_GROUP,,BUY_REGULAR,,,,,,0,,,,,,,,,,,,,,
339,11159428,Hastière,5544,Route de Philippeville,97,50.1496377,4.7982385,HOUSE,VILLA,275000.0,BUY_REGULAR,5.0,165.0,,1.0,,1,1.0,80.0,1.0,793.0,,,4.0,,GOOD,793.0,1.0,0.0,1.0,2.251
340,11159426,Molenbeek-Saint-Jean,1080,Avenue de Selliers de Moranville,31,50.868523,4.2911622,APARTMENT,PENTHOUSE,480000.0,BUY_REGULAR,,121.0,USA_HYPER_EQUIPPED,1.0,0.0,0,1.0,60.0,,,,,2.0,0.0,,,35.0,7.0,1.0,0.557
341,11159416,Hasselt,3510,Diestersteenweg,33,50.9448114,5.2668392,APARTMENT,DUPLEX,339000.0,BUY_REGULAR,1.0,113.0,,,,0,1.0,,,,,,2.0,,GOOD,,12.0,3.0,0.0,
342,11159424,Denderleeuw,9470,Broekstraat,124,50.8982189,4.041398,HOUSE,HOUSE,380000.0,BUY_REGULAR,3.0,93.0,,1.0,,1,1.0,,,,,,3.0,,JUST_RENOVATED,320.0,3.0,1.0,1.0,2.351
343,11159415,Schoten,2900,,,,,HOUSE,VILLA,1845000.0,BUY_REGULAR,1.0,570.0,,1.0,,0,,,1.0,1956.0,,,4.0,,GOOD,1956.0,,,,
344,11159408,SOMME-LEUZE,5377,Rue du Bochetay,29,50.2979192,5.3183063,HOUSE,BUNGALOW,115000.0,BUY_REGULAR,,62.0,SEMI_EQUIPPED,1.0,,0,1.0,9.0,,,,,4.0,,GOOD,66.0,0.0,0.0,0.0,
345,11159420,Lebbeke,9280,,,,,HOUSE_GROUP,HOUSE_GROUP,,BUY_REGULAR,,,,,,0,,,,,,,,,,,,,,
346,11159410,Halle,1500,Arthur Puesstraat,267,50.7173325,4.2106199,HOUSE,HOUSE,575000.0,BUY_REGULAR,1.0,140.0,,1.0,,0,1.0,,,,,,2.0,1.0,GOOD,742.0,16.0,3.0,2.0,2.464
347,11159404,DURBUY,6940,Rue de la Haie Himbe,21,50.350504,5.4484754,HOUSE,VILLA,1175000.0,BUY_REGULAR,,305.0,INSTALLED,1.0,1.0,1,1.0,40.0,,,,,4.0,,GOOD,1863.0,14.0,17.0,0.0,
348,11159407,DURBUY,6940,Rue de la Haie Himbe,23,50.3504474,5.4483,HOUSE,VILLA,1100000.0,BUY_REGULAR,,265.0,INSTALLED,1.0,1.0,1,1.0,36.0,1.0,39.0,,,4.0,,AS_NEW,1877.0,14.0,17.0,0.0,
349,11159392,DURBUY,6940,Clos du Manoir,1,50.3472105,5.4629087,HOUSE,VILLA,695000.0,BUY_REGULAR,,151.0,INSTALLED,1.0,,0,1.0,25.0,1.0,2023.0,,,4.0,,AS_NEW,2168.0,14.0,17.0,0.0,
350,11159387,Roeselare,8800,Hendrik Consciencestraat,17,50.9482038,3.1257001,APARTMENT,APARTMENT,135000.0,BUY_REGULAR,3.0,78.0,,1.0,,0,1.0,,,,,,,,TO_RESTORE,,361.0,49.0,2.0,0.983
351,11159402,DURBUY,6940,Rue de Saint-Amour,34,50.3516667,5.4644637,HOUSE,VILLA,460000.0,BUY_REGULAR,,173.0,INSTALLED,1.0,,1,1.0,38.0,,,,,4.0,,GOOD,927.0,14.0,16.0,0.0,
352,11159405,SOY,6997,rue Grand Mont,21,50.2849578,5.5073905,HOUSE,HOUSE,255000.0,BUY_REGULAR,,164.0,INSTALLED,1.0,,0,1.0,,,,,,2.0,,AS_NEW,367.0,0.0,0.0,0.0,
353,11159399,GRANDHAN,6940,Rue d'Andenne,6,50.3418649,5.4311466,HOUSE,HOUSE,260000.0,BUY_REGULAR,,58.0,SEMI_EQUIPPED,1.0,,0,1.0,41.0,,,,,4.0,,GOOD,1053.0,3.0,1.0,0.0,
354,11159406,ORTHO,6983,Warempage,54b,50.1186064,5.6354484,HOUSE,COUNTRY_COTTAGE,175000.0,BUY_REGULAR,,100.0,NOT_INSTALLED,1.0,,0,,,,,,,3.0,,,577.0,2.0,0.0,0.0,
355,11034992,Zellik,1731,Klokjesbloemstraat,10,50.8892473,4.2682707,HOUSE,HOUSE,435000.0,BUY_REGULAR,,173.0,INSTALLED,1.0,0.0,0,1.0,,,,,,4.0,,GOOD,489.0,11.0,4.0,1.0,2.29
356,11134217,Harelbeke,8530,,,,,HOUSE_GROUP,HOUSE_GROUP,,BUY_REGULAR,,,,,,0,,,,,,,,,,,,,,
357,11133687,Gavere,9890,Slaapstraat,8,50.9145933,3.6505555,HOUSE_GROUP,HOUSE_GROUP,,BUY_REGULAR,,,,,,0,,,,,,,,,,,8.0,0.0,2.0,0.189
358,10881613,Zoersel,2980,Dorp,29,51.268877,4.712647,HOUSE_GROUP,HOUSE_GROUP,,BUY_REGULAR,,,,,,0,,,,,,,,,,,10.0,0.0,1.0,0.244
359,11157476,Gent,9000,Zwijnaardsesteenweg,29,51.03632,3.7265077,HOUSE,HOUSE,595000.0,BUY_REGULAR,,180.0,INSTALLED,1.0,,0,1.0,1.0,1.0,66.0,,,2.0,0.0,JUST_RENOVATED,139.0,155.0,61.0,21.0,0.064
360,11156901,Chastre,1450,Rue Octave Lotin,81,50.5804201,4.641935,HOUSE,HOUSE,450000.0,BUY_REGULAR,,219.0,USA_SEMI_EQUIPPED,1.0,0.0,0,1.0,100.0,1.0,1133.0,,,3.0,0.0,GOOD,1330.0,0.0,0.0,0.0,
361,11157886,Herne,1540,Steenweg Asse,63,50.7089791,4.0694354,HOUSE,HOUSE,399000.0,BUY_REGULAR,1.0,250.0,,,,0,,,,,,,3.0,,GOOD,1133.0,0.0,1.0,1.0,2.336
362,11133652,Sint-Lievens-Houtem,9520,Wettersesteenweg,194,50.9463854,3.8620044,HOUSE_GROUP,HOUSE_GROUP,,BUY_REGULAR,,,,,,0,,,,,,,,,,,2.0,0.0,0.0,
363,11133620,Sint-Pieters-Leeuw,1600,Georges Wittouckstraat,195,50.7879808,4.2729756,HOUSE,HOUSE,399000.0,BUY_REGULAR,,157.0,SEMI_EQUIPPED,1.0,0.0,0,1.0,,,,,,3.0,0.0,TO_BE_DONE_UP,603.0,6.0,2.0,0.0,
364,11134158,Oupeye,4684,Rue de Tongres,99,50.7399799,5.6666422,HOUSE,BUNGALOW,199000.0,BUY_REGULAR,,81.0,INSTALLED,1.0,1.0,0,1.0,19.0,1.0,100.0,,,3.0,0.0,TO_BE_DONE_UP,333.0,34.0,6.0,1.0,2.208
365,11134170,Seraing,4101,Rue Joseph Wettinck,54,50.6151437,5.5014799,HOUSE,MIXED_USE_BUILDING,209900.0,BUY_REGULAR,,200.0,NOT_INSTALLED,1.0,0.0,0,,,,,,,2.0,0.0,JUST_RENOVATED,510.0,7.0,4.0,0.0,
366,11157276,Diksmuide,8600,Keiemdorpstraat,106,51.0810128,2.8825746,HOUSE,HOUSE,549000.0,BUY_REGULAR,1.0,502.0,,,,0,,,1.0,957.0,,,4.0,,GOOD,957.0,5.0,0.0,0.0,
367,11134155,"La Roche-en-Ardenne, Bérisménil",6982,Route de samrée,12,50.2106573,5.6348619,HOUSE,HOUSE,395000.0,BUY_REGULAR,,138.0,USA_INSTALLED,1.0,0.0,0,1.0,,1.0,1073.0,,,4.0,0.0,AS_NEW,1166.0,2.0,0.0,0.0,
368,11134157,Tongeren,3700,Millerweg,26,50.7664209,5.5333642,HOUSE,HOUSE,169000.0,BUY_REGULAR,,165.0,INSTALLED,1.0,0.0,0,1.0,19.0,1.0,360.0,,,3.0,0.0,GOOD,442.0,0.0,0.0,0.0,
369,11140957,Brakel,9660,Kanakkendries,29A,50.8050313,3.7181691,HOUSE,HOUSE,349000.0,BUY_REGULAR,,135.0,INSTALLED,1.0,0.0,0,1.0,,1.0,667.0,,,4.0,1.0,GOOD,1198.0,0.0,0.0,0.0,
370,11134745,Beersel,1653,Hanenbosweg,59,50.736537,4.2881229,HOUSE,TOWN_HOUSE,499000.0,BUY_REGULAR,,160.0,HYPER_EQUIPPED,1.0,0.0,0,1.0,25.0,1.0,360.0,,,2.0,0.0,GOOD,1382.0,13.0,3.0,0.0,
371,10961877,Londerzeel,1840,Kruishofplein,15,51.0313,4.294262,HOUSE,HOUSE,375000.0,BUY_REGULAR,,117.0,HYPER_EQUIPPED,1.0,0.0,0,1.0,20.0,1.0,55.0,,,3.0,0.0,AS_NEW,204.0,2.0,0.0,0.0,
372,11133726,Antwerpen,2040,Antwerpsebaan,216,51.3486055,4.3203559,HOUSE,HOUSE,425000.0,BUY_REGULAR,,180.0,HYPER_EQUIPPED,1.0,0.0,0,1.0,20.0,,,,,4.0,1.0,AS_NEW,612.0,23.0,0.0,0.0,
373,11133752,Maldegem,9990,Bloemestraat,46,51.2138877,3.4544269,HOUSE,VILLA,624000.0,BUY_REGULAR,,310.0,USA_HYPER_EQUIPPED,1.0,0.0,0,1.0,,,,,,4.0,0.0,GOOD,4153.0,34.0,7.0,0.0,
374,11142295,Anderlecht,1070,Rue théodore bekaert,25,50.8297509,4.3057016,HOUSE,HOUSE,389000.0,BUY_REGULAR,,235.0,SEMI_EQUIPPED,1.0,0.0,0,,,1.0,10.0,,,2.0,0.0,TO_RENOVATE,80.0,59.0,12.0,22.0,0.171
375,11140956,Ronse,9600,Stationsstraat,40,50.7431167,3.601514,HOUSE,MIXED_USE_BUILDING,265000.0,BUY_REGULAR,,234.0,HYPER_EQUIPPED,1.0,0.0,0,1.0,27.0,,,,,2.0,0.0,AS_NEW,133.0,16.0,12.0,1.0,0.352
376,11134444,Tubize,1480,Rue Try-Bas,122,50.6895176,4.1718537,HOUSE,VILLA,575000.0,BUY_REGULAR,,260.0,INSTALLED,1.0,,0,1.0,80.0,1.0,800.0,,,4.0,0.0,AS_NEW,1185.0,0.0,0.0,4.0,1.866
377,11134252,Dilbeek,1700,Molendal,13,50.8437415,4.2522284,HOUSE,VILLA,469000.0,BUY_REGULAR,2.0,198.0,HYPER_EQUIPPED,1.0,,0,1.0,6.0,1.0,455.0,,,4.0,0.0,JUST_RENOVATED,571.0,9.0,3.0,0.0,
378,11142084,ANTWERPEN,2018,Montebellostraat,2,51.2081873,4.4082537,HOUSE,MIXED_USE_BUILDING,187000.0,BUY_REGULAR,,42.0,INSTALLED,1.0,,0,1.0,7.0,,,,,2.0,,AS_NEW,869.0,952.0,178.0,25.0,0.275
379,11140536,Dilbeek,1700,André Waucquezlaan,35,50.8482104,4.2803659,HOUSE,VILLA,449000.0,BUY_REGULAR,,130.0,NOT_INSTALLED,1.0,0.0,0,1.0,15.0,1.0,60.0,,,4.0,0.0,TO_RENOVATE,433.0,20.0,5.0,8.0,2.011
380,11159375,ENGIS,4480,Rue Reine Astrid,135,50.5854685,5.3956942,HOUSE,HOUSE,199000.0,BUY_REGULAR,,96.0,SEMI_EQUIPPED,1.0,,1,1.0,14.0,,,,,3.0,,GOOD,70.0,2.0,1.0,0.0,
381,11159378,MELSELE,9120,Snoeckstraat,4,51.2200893,4.2944339,HOUSE,HOUSE,349000.0,BUY_REGULAR,,179.0,SEMI_EQUIPPED,1.0,,0,1.0,,,,,,3.0,,GOOD,0.0,8.0,1.0,0.0,
382,11159381,Gingelom,3890,Steenweg,27,50.7566637,5.1373752,HOUSE,HOUSE,175000.0,BUY_REGULAR,,109.0,USA_INSTALLED,1.0,0.0,0,1.0,30.0,1.0,121.0,,,3.0,0.0,GOOD,233.0,4.0,1.0,1.0,0.559
383,11159380,oostende,8400,Nieuwpoorsesteenweg,160,51.2158371,2.889208,APARTMENT,APARTMENT,169000.0,BUY_REGULAR,3.0,75.0,,,,0,1.0,,,,,,,,GOOD,,22.0,10.0,1.0,1.528
384,11159365,Rumillies,7540,,,,,HOUSE,HOUSE,369000.0,BUY_REGULAR,,215.0,INSTALLED,1.0,0.0,0,,,,,,,4.0,,,850.0,,,,
385,11146420,Ronse,9600,Rotterij,284,50.741744,3.63402,HOUSE,VILLA,249000.0,BUY_REGULAR,,167.0,SEMI_EQUIPPED,1.0,0.0,0,1.0,20.0,1.0,330.0,,,3.0,0.0,TO_RENOVATE,653.0,1.0,0.0,0.0,
386,11143199,Knokke-Zoute,8300,Hugevliet,1,51.3268775,3.3072642,HOUSE,HOUSE,3100000.0,BUY_REGULAR,19.0,285.0,HYPER_EQUIPPED,1.0,,0,,,,,,,4.0,,GOOD,2648.0,14.0,1.0,1.0,1.985
387,11140919,Geraardsbergen Grimminge,9506,Klakvijverstraat,86,50.7917936,3.9343295,HOUSE,VILLA,699000.0,BUY_REGULAR,,256.0,INSTALLED,1.0,0.0,0,1.0,45.0,1.0,3661.0,,,4.0,0.0,AS_NEW,3828.0,4.0,0.0,0.0,
388,11156315,Oudenaarde,9700,Kanunnikenstraat,29,50.864192,3.6161555,HOUSE,HOUSE,125000.0,BUY_REGULAR,12.0,101.0,,1.0,,0,1.0,,,,,,2.0,,TO_RENOVATE,90.0,22.0,3.0,0.0,
389,11140920,Gent,9000,Zonder-Naamstraat,28 - 30,51.0575744,3.7353456,HOUSE,HOUSE,550000.0,BUY_REGULAR,,340.0,USA_HYPER_EQUIPPED,1.0,0.0,0,1.0,21.0,,,,,2.0,0.0,GOOD,151.0,657.0,235.0,26.0,0.283
390,11159377,FLÉMALLE,4400,Rue du Village,163,50.6007725,5.4689339,HOUSE,HOUSE,199000.0,BUY_REGULAR,,222.0,NOT_INSTALLED,1.0,,1,,,1.0,140.0,,,2.0,,TO_RESTORE,273.0,5.0,4.0,1.0,0.388
391,11159300,BEERSE,2340,Tempelstraat,19,51.3164986,4.8534093,HOUSE,HOUSE,375000.0,BUY_REGULAR,,170.0,INSTALLED,1.0,,0,,,,,,,4.0,,,648.0,13.0,0.0,1.0,0.752
392,11159362,Diksmuide,8600,Tuinwijk,80,51.0294459,2.8669062,HOUSE,HOUSE,305000.0,BUY_REGULAR,4.0,132.0,,1.0,,0,1.0,,,,,,,,GOOD,549.0,17.0,5.0,0.0,
393,11159366,Doornik,7500,,,,,HOUSE,HOUSE,369000.0,BUY_REGULAR,,215.0,INSTALLED,1.0,0.0,0,1.0,,,,,,4.0,,,850.0,,,,
394,11159376,RAMIOUL,4400,Rue Max Buset,150,50.5800179,5.4172779,HOUSE,VILLA,325000.0,BUY_REGULAR,,114.0,SEMI_EQUIPPED,1.0,,1,1.0,45.0,1.0,3700.0,,,4.0,,GOOD,4039.0,5.0,1.0,1.0,0.764
395,11159363,Wommelgem,2160,Welkomstraat,98,51.1998815,4.5254868,APARTMENT,GROUND_FLOOR,390000.0,BUY_REGULAR,,115.0,INSTALLED,1.0,,0,,,1.0,160.0,,,3.0,0.0,AS_NEW,,4.0,1.0,0.0,
396,11159304,Veerle,2431,Vest,14,51.06994,4.98721,HOUSE,HOUSE,375000.0,BUY_REGULAR,,201.0,,,0.0,0,,,,,,,4.0,0.0,,877.0,20.0,1.0,0.0,
397,11143568,Oudenaarde,9700,Serpentsstraat,8,50.8691884,3.6148608,HOUSE,CASTLE,1560000.0,BUY_REGULAR,26.0,545.0,,,,0,,,,,,,4.0,,TO_RENOVATE,5615.0,29.0,3.0,0.0,
398,11159303,Geel (Geel),2440,Diestseweg,35,51.1591259,4.9922617,HOUSE,HOUSE,299000.0,BUY_REGULAR,,220.0,,,0.0,0,,,,,,,2.0,0.0,,350.0,144.0,29.0,2.0,0.471
399,10806645,Baasrode,9200,Provinciale Baan,153,51.030751,4.1896762,HOUSE_GROUP,HOUSE_GROUP,,BUY_REGULAR,,,,,,0,,,,,,,,,,,2.0,0.0,0.0,
400,11159360,Antwerpen,2018,Brialmontlei,4,51.2097021,4.4195515,HOUSE,HOUSE,1100000.0,BUY_REGULAR,,350.0,USA_INSTALLED,1.0,,1,1.0,12.0,1.0,140.0,,,2.0,0.0,GOOD,280.0,853.0,155.0,21.0,0.439
401,11159291,ARLON,6700,,,,,HOUSE,HOUSE,745000.0,BUY_REGULAR,,282.0,HYPER_EQUIPPED,1.0,,1,1.0,25.0,1.0,150.0,,,2.0,,AS_NEW,360.0,,,,
402,11159299,Molenbeek-Saint-Jean,1080,,,,,APARTMENT,APARTMENT,189000.0,BUY_REGULAR,,86.0,SEMI_EQUIPPED,1.0,0.0,0,1.0,12.0,,,,,2.0,,GOOD,,,,,
403,11056581,Grembergen,9200,Oude Molenstraat,89,51.0619648,4.1098961,HOUSE_GROUP,HOUSE_GROUP,,BUY_REGULAR,,,,,,0,,,,,,,,,,,4.0,0.0,0.0,
404,10842668,Lokeren,9160,Welputstraat,,51.0951252,4.0046332,HOUSE_GROUP,HOUSE_GROUP,,BUY_REGULAR,,,,,,0,,,,,,,,,,,98.0,6.0,0.0,
405,10846515,Hamme,9220,Vlaslaan,,51.0924845,4.1270221,HOUSE_GROUP,HOUSE_GROUP,,BUY_REGULAR,,,,,,0,,,,,,,,,,,24.0,2.0,1.0,1.726
406,11159289,Verviers Lambermont,4800,Rue Saint-Bernard,24,50.5906273,5.8311096,HOUSE,HOUSE,170000.0,BUY_REGULAR,,65.0,INSTALLED,1.0,0.0,0,1.0,4.0,1.0,25.0,,,2.0,0.0,GOOD,110.0,5.0,3.0,2.0,1.955
407,11159298,Wommelgem,2160,Welkomstraat,98,51.1998815,4.5254868,APARTMENT,APARTMENT,385000.0,BUY_REGULAR,,120.0,INSTALLED,1.0,,0,,,1.0,100.0,,,3.0,0.0,AS_NEW,,4.0,1.0,0.0,
408,11118544,Herseaux,7712,,,,,HOUSE,HOUSE,565000.0,BUY_REGULAR,,186.0,INSTALLED,1.0,0.0,0,1.0,180.0,1.0,1350.0,,,2.0,0.0,AS_NEW,1800.0,,,,
409,11159288,Estaimpuis,7730,,,,,HOUSE,VILLA,669000.0,BUY_REGULAR,,300.0,INSTALLED,1.0,0.0,0,1.0,,,,,,4.0,1.0,JUST_RENOVATED,2990.0,,,,
410,11159301,Vorst,1190,,,,,APARTMENT,APARTMENT,295000.0,BUY_REGULAR,,95.0,INSTALLED,1.0,0.0,0,1.0,4.0,,,,,3.0,0.0,GOOD,,,,,
411,11159305,Hastière,5542,Allée des Pinsons,56,50.2082509,4.8418458,HOUSE,COUNTRY_COTTAGE,98000.0,BUY_REGULAR,4.0,60.0,,1.0,,1,1.0,25.0,1.0,337.0,,,,,GOOD,337.0,1.0,2.0,0.0,
412,10900680,Nieuwenhove,9506,Overraadstraat,73,50.7865495,3.979988,HOUSE_GROUP,HOUSE_GROUP,,BUY_REGULAR,,,,,,0,,,,,,,,,,,0.0,1.0,0.0,
413,11159292,AUTELBAS,6706,,,,,HOUSE,VILLA,850000.0,BUY_REGULAR,,220.0,USA_HYPER_EQUIPPED,1.0,,0,,,1.0,7500.0,,,4.0,,AS_NEW,8000.0,,,,
414,11153604,Beyne-Heusay,4610,Rue de Jupille,27,50.623819,5.6522808,HOUSE,HOUSE,159000.0,BUY_REGULAR,,70.0,INSTALLED,1.0,0.0,0,1.0,9.0,,,,,2.0,0.0,GOOD,90.0,11.0,1.0,0.0,
415,10848918,Moeskroen,7700,,,,,HOUSE,COUNTRY_COTTAGE,475000.0,BUY_REGULAR,,292.0,INSTALLED,1.0,0.0,0,1.0,,1.0,900.0,,,4.0,0.0,GOOD,1272.0,,,,
416,11154145,Outrijve,8582,Molenstraat,15,50.7586842,3.427886,HOUSE,HOUSE,269500.0,BUY_REGULAR,,140.0,INSTALLED,1.0,,1,1.0,,,,,,3.0,,GOOD,188.0,0.0,1.0,2.0,2.169
417,10794211,Linter,3350,Sint-Kwintensstraat,64,50.8100283,5.0197834,HOUSE,HOUSE,179000.0,BUY_REGULAR,1.0,140.0,,1.0,,0,1.0,50.0,1.0,406.0,,,2.0,,TO_RENOVATE,661.0,1.0,0.0,0.0,
418,11154589,Sint-Niklaas,9111,Roggeveld,7,51.1445513,4.0682264,HOUSE,VILLA,655000.0,BUY_REGULAR,,225.0,HYPER_EQUIPPED,1.0,,0,,,,,,,4.0,0.0,AS_NEW,745.0,21.0,3.0,0.0,
419,11083571,La Louvière,7100,Rue Charles Plisnier,13,50.4815293,4.1990644,APARTMENT,DUPLEX,149000.0,BUY_REGULAR,,67.0,INSTALLED,1.0,0.0,0,1.0,7.0,,,,,2.0,,GOOD,,293.0,46.0,2.0,0.347
420,11156127,Brasschaat,2930,De Vroente,46,51.29504,4.4482871,HOUSE,HOUSE,379000.0,BUY_REGULAR,,215.0,INSTALLED,1.0,,1,1.0,,1.0,,,,2.0,,TO_BE_DONE_UP,361.0,10.0,4.0,5.0,0.214
421,11154021,Aalst,9300,Sint Jozefstraat,10,50.9406413,4.0331559,HOUSE,HOUSE,279000.0,BUY_REGULAR,,120.0,USA_INSTALLED,1.0,,0,1.0,4.0,,,,,2.0,,GOOD,60.0,61.0,16.0,5.0,0.661
422,11153488,Opwijk,1745,Steenweg op Merchtem,133,50.9617135,4.2027676,HOUSE,HOUSE,275000.0,BUY_REGULAR,,178.0,INSTALLED,1.0,,0,1.0,,,,,,3.0,,GOOD,900.0,13.0,3.0,8.0,1.427
423,11153359,Luik,4000,Rue de Rocourt,119,50.6597739,5.564159,HOUSE,HOUSE,290000.0,BUY_REGULAR,,132.0,USA_HYPER_EQUIPPED,1.0,,0,1.0,24.0,1.0,140.0,,,2.0,0.0,GOOD,224.0,10.0,5.0,2.0,1.661
424,11153489,Opwijk,1745,Broeckehof,15,50.9636894,4.1823601,HOUSE,HOUSE,499000.0,BUY_REGULAR,,210.0,HYPER_EQUIPPED,1.0,0.0,0,1.0,,,,,,4.0,,GOOD,902.0,15.0,4.0,7.0,0.456
425,11132583,Neupré,4121,Avenue de la Vecquée,48,50.5485154,5.4885732,HOUSE,HOUSE,259000.0,BUY_REGULAR,,167.0,INSTALLED,1.0,0.0,0,1.0,20.0,1.0,500.0,,,3.0,0.0,GOOD,601.0,33.0,2.0,0.0,
426,11130823,Gavere,9890,Onderstraat,11-19,50.930244,3.6619835,HOUSE_GROUP,HOUSE_GROUP,,BUY_REGULAR,,,,,,0,,,,,,,,,,,13.0,4.0,4.0,1.149
427,11131307,Zaventem,1930,Olmenstraat,76,50.8920373,4.4652467,HOUSE,HOUSE,349000.0,BUY_REGULAR,,147.0,HYPER_EQUIPPED,1.0,0.0,0,1.0,20.0,1.0,120.0,,,2.0,0.0,JUST_RENOVATED,179.0,40.0,22.0,4.0,0.431
428,11153109,Tervuren,3080,Frans Vanfraechemlaan,9,50.8393085,4.5408751,HOUSE,VILLA,825000.0,BUY_REGULAR,,295.0,INSTALLED,1.0,0.0,0,1.0,,,,,,4.0,0.0,GOOD,1362.0,7.0,2.0,3.0,1.389
429,11130559,Ronse,9600,Clementine De Niestraat,1A,50.7519155,3.6184193,HOUSE_GROUP,HOUSE_GROUP,,BUY_REGULAR,,,,,,0,,,,,,,,,,,5.0,0.0,1.0,1.235
430,11130919,Ronse,9600,Bredestraat,247,50.7477588,3.6156619,HOUSE,HOUSE,265000.0,BUY_REGULAR,,169.0,INSTALLED,1.0,0.0,0,1.0,27.0,,,,,2.0,0.0,AS_NEW,100.0,6.0,6.0,1.0,0.873
431,11130920,Ronse,9600,Aatstraat,84,50.7403801,3.6094447,HOUSE,HOUSE,249000.0,BUY_REGULAR,,156.0,INSTALLED,1.0,0.0,0,,,1.0,350.0,,,3.0,0.0,TO_BE_DONE_UP,555.0,12.0,12.0,1.0,0.749
432,11132698,Aartrijke,8211,Engelstraat,35,51.1219023,3.0939758,HOUSE_GROUP,HOUSE_GROUP,,BUY_REGULAR,,,,,,0,,,,,,,,,,,5.0,2.0,0.0,
433,11132174,Dessel,2480,Oude Velden,38-46,51.2377889,5.1444086,HOUSE_GROUP,HOUSE_GROUP,,BUY_REGULAR,,,,,,0,,,,,,,,,,,1.0,0.0,0.0,
434,11131905,Dendermonde,9200,Koning Boudewijnlaan,77,51.0351704,4.0856204,HOUSE,HOUSE,324900.0,BUY_REGULAR,,128.0,INSTALLED,1.0,,1,1.0,45.0,1.0,147.0,,,2.0,,GOOD,317.0,9.0,1.0,0.0,
435,11132753,Aalter,9880,Stationsstraat,102-104,51.0872351,3.4484676,HOUSE_GROUP,HOUSE_GROUP,,BUY_REGULAR,,,,,,0,,,,,,,,,,,101.0,13.0,1.0,0.643
436,11132754,Aalter,9880,Stationsstraat,102-104,51.0872351,3.4484676,HOUSE_GROUP,HOUSE_GROUP,,BUY_REGULAR,,,,,,0,,,,,,,,,,,101.0,13.0,1.0,0.643
437,11132699,Ichtegem,8480,Moerdijkstraat,38,51.098565,3.0135011,HOUSE_GROUP,HOUSE_GROUP,,BUY_REGULAR,,,,,,0,,,,,,,,,,,4.0,1.0,0.0,
438,11130813,Lierde,9570,Gentse Steenweg,27,50.8070888,3.8729529,HOUSE_GROUP,HOUSE_GROUP,,BUY_REGULAR,,,,,,0,,,,,,,,,,,0.0,0.0,0.0,
439,11131933,ERPE-MERE,9420,Oudenaardsesteenweg,635,50.9174909,3.9326156,HOUSE_GROUP,HOUSE_GROUP,,BUY_REGULAR,,,,,,0,,,,,,,,,,,7.0,1.0,0.0,
440,11083571,La Louvière,7100,Rue Charles Plisnier,13,50.4815293,4.1990644,APARTMENT,DUPLEX,149000.0,BUY_REGULAR,,67.0,INSTALLED,1.0,0.0,0,1.0,7.0,,,,,2.0,,GOOD,,293.0,46.0,2.0,0.347
441,11058343,Wemmel,1780,Julius Bruyndonckxstraat,112,50.9053564,4.2972284,HOUSE,TOWN_HOUSE,459000.0,BUY_REGULAR,,190.0,INSTALLED,1.0,0.0,0,1.0,,,,,,2.0,,TO_BE_DONE_UP,1612.0,51.0,7.0,3.0,0.829
442,10900680,Nieuwenhove,9506,Overraadstraat,73,50.7865495,3.979988,HOUSE_GROUP,HOUSE_GROUP,,BUY_REGULAR,,,,,,0,,,,,,,,,,,0.0,1.0,0.0,
443,11139390,Harelbeke,8530,Overleiestraat,113,50.8610322,3.3036799,HOUSE,HOUSE,260000.0,BUY_REGULAR,4.0,190.0,SEMI_EQUIPPED,1.0,,0,,,1.0,1.0,,,2.0,0.0,GOOD,360.0,9.0,1.0,0.0,
444,11159285,Lier,2500,Leeuwerikstraat,12,51.1031504,4.5097305,HOUSE,HOUSE,589000.0,BUY_REGULAR,,235.0,HYPER_EQUIPPED,1.0,0.0,0,1.0,30.0,,,,,3.0,0.0,GOOD,402.0,37.0,7.0,7.0,0.352
445,11080049,Anderlecht,1070,Chaussée de Mons,747,50.8299256,4.3071012,HOUSE,HOUSE,380000.0,BUY_REGULAR,,147.0,INSTALLED,1.0,0.0,0,1.0,10.0,,,,,2.0,0.0,TO_BE_DONE_UP,91.0,60.0,13.0,22.0,0.186
446,10820901,Ciney,5590,Rue de Trisogne,15,50.28186,5.1678391,HOUSE,VILLA,370000.0,BUY_REGULAR,,191.0,NOT_INSTALLED,1.0,0.0,0,1.0,,,,,,3.0,,AS_NEW,736.0,0.0,0.0,0.0,
447,11132404,COURT-SAINT-ETIENNE,1490,Rue de Sart,76,50.6244586,4.5627382,HOUSE,HOUSE,595000.0,BUY_REGULAR,,200.0,INSTALLED,1.0,0.0,1,1.0,70.0,1.0,400.0,,,4.0,,JUST_RENOVATED,1333.0,0.0,0.0,2.0,2.005
448,10869795,Daverdisse,6929,Scottons,17,50.0129742,5.0360094,HOUSE,HOUSE,280000.0,BUY_REGULAR,,150.0,INSTALLED,1.0,0.0,0,1.0,,,,,,3.0,0.0,AS_NEW,1191.0,0.0,0.0,0.0,
449,11159284,Herentals,2200,Ekelstraat,40,51.178497,4.814443,HOUSE,HOUSE,249000.0,BUY_REGULAR,,129.0,SEMI_EQUIPPED,1.0,0.0,0,,,,,,,3.0,0.0,TO_RENOVATE,490.0,14.0,1.0,7.0,1.567
450,11159286,Puurs-Sint-Amands,2890,Kerkhofdries,29,51.0554156,4.2058174,HOUSE,HOUSE,479000.0,BUY_REGULAR,,245.0,INSTALLED,1.0,,0,1.0,,,,,,3.0,,GOOD,569.0,12.0,2.0,0.0,
451,11159280,Deerlijk,8540,Kerkstraat,233,50.8301649,3.3858205,HOUSE,HOUSE,275000.0,BUY_REGULAR,,,INSTALLED,1.0,,0,1.0,,,,,,3.0,0.0,,1720.0,3.0,2.0,0.0,
452,11159283,Sint-Jans-Molenbeek,1080,Avenue Carl Requette,5,50.8564084,4.3062305,APARTMENT,APARTMENT,235000.0,BUY_REGULAR,,90.0,HYPER_EQUIPPED,1.0,0.0,0,,,,,,,2.0,,GOOD,,63.0,13.0,11.0,1.09
453,11159278,Arendonk,2370,Bremberg,1A,51.3205041,5.0926057,APARTMENT,APARTMENT,379000.0,BUY_REGULAR,,110.0,HYPER_EQUIPPED,1.0,,0,1.0,8.0,,,,,2.0,,AS_NEW,,18.0,2.0,0.0,
454,11023548,Antwerpen,2018,Lange Lozanastraat,233,51.1985699,4.4077736,APARTMENT,FLAT_STUDIO,205000.0,BUY_REGULAR,,49.0,,,1.0,0,1.0,29.0,,,,,2.0,,AS_NEW,,169.0,50.0,19.0,0.584
455,11056511,Kruibeke,9150,Molenstraat,200,51.1762331,4.3014856,HOUSE_GROUP,HOUSE_GROUP,,BUY_REGULAR,,,,,,0,,,,,,,,,,,8.0,0.0,0.0,
456,11159275,Vosselaar,2350,Kerkstraat,26,51.3135758,4.890386,HOUSE,HOUSE,299000.0,BUY_REGULAR,,166.0,INSTALLED,1.0,,0,,,,,,,4.0,,TO_RENOVATE,762.0,20.0,0.0,0.0,
457,10953454,Mol,2400,Sint-Theresiastraat,79,51.1968083,5.107829,HOUSE,HOUSE,550000.0,BUY_REGULAR,,230.0,HYPER_EQUIPPED,1.0,,0,1.0,,,,,,4.0,,GOOD,2100.0,54.0,11.0,1.0,1.361
458,11159272,Gent,9000,Antwerpsesteenweg,18,51.0577748,3.7419949,HOUSE,MANSION,550000.0,BUY_REGULAR,,302.0,USA_HYPER_EQUIPPED,1.0,,0,1.0,,,,,,2.0,,TO_BE_DONE_UP,138.0,331.0,84.0,23.0,0.124
459,11159271,Wachtebeke,9185,Stationsstraat,35,51.1730313,3.8622803,HOUSE,HOUSE,325000.0,BUY_REGULAR,,139.0,HYPER_EQUIPPED,1.0,0.0,0,1.0,25.0,1.0,250.0,,,2.0,0.0,GOOD,420.0,4.0,1.0,0.0,
460,11159268,Aarschot Gelrode,3200,Leuvensesteenweg,570,50.9632065,4.7829477,HOUSE,HOUSE,275000.0,BUY_REGULAR,,82.0,HYPER_EQUIPPED,1.0,0.0,0,1.0,,,,,,3.0,,AS_NEW,237.0,1.0,2.0,0.0,
461,11159270,Merelbeke,9820,Ringvaartstraat,75,51.0073474,3.7573221,HOUSE,HOUSE,275000.0,BUY_REGULAR,,135.0,,1.0,0.0,0,,,,,,,2.0,,,210.0,22.0,5.0,1.0,2.059
462,11144176,Ledeberg,9050,Friedrich Froebelstraat,15,51.0361063,3.7408812,HOUSE,HOUSE,295000.0,BUY_REGULAR,,124.0,USA_HYPER_EQUIPPED,1.0,,0,1.0,,,,,,2.0,,GOOD,53.0,100.0,41.0,21.0,0.593
463,11159266,Leuven,3000,Ravenstraat,22,50.8770729,4.7070058,HOUSE,APARTMENT_BLOCK,1125000.0,BUY_REGULAR,,,INSTALLED,1.0,1.0,0,,,,,,,2.0,,AS_NEW,66.0,564.0,192.0,15.0,0.104
464,11159263,Sars-la-Buissière,6542,Chevesne,6,50.336678,4.212841,HOUSE,HOUSE,165000.0,BUY_REGULAR,,103.0,,1.0,,0,,,1.0,495.0,,,3.0,,TO_RENOVATE,3202.0,3.0,0.0,0.0,
465,11159264,Grace-Hollogne,4460,Rue du Sart-Thiri,17,50.6231688,5.3963538,APARTMENT,APARTMENT,225000.0,BUY_REGULAR,,120.0,,1.0,0.0,0,1.0,60.0,1.0,540.0,,,4.0,0.0,AS_NEW,,0.0,0.0,0.0,
466,11159256,Saint-Gilles,1060,,,,,APARTMENT,APARTMENT,300000.0,BUY_REGULAR,,80.0,SEMI_EQUIPPED,1.0,,0,,,,,,,3.0,,GOOD,,,,,
467,11159265,Wezet,4600,Rue Basse,40,50.7325934,5.6945977,APARTMENT,APARTMENT,219000.0,BUY_REGULAR,,95.0,INSTALLED,1.0,0.0,0,1.0,15.0,1.0,40.0,,,2.0,0.0,AS_NEW,,28.0,7.0,1.0,0.21
468,11159261,Wépion,5100,Chaussée de Dinant,1112,50.4200356,4.8773712,HOUSE,HOUSE,389000.0,BUY_REGULAR,,205.0,INSTALLED,1.0,0.0,0,1.0,90.0,,,,,3.0,1.0,GOOD,698.0,15.0,9.0,0.0,
469,11137923,Gent Wondelgem,9032,Braambezielaan,10,51.0800218,3.7027816,HOUSE,HOUSE,418000.0,BUY_REGULAR,,143.0,USA_HYPER_EQUIPPED,1.0,0.0,0,1.0,25.0,1.0,100.0,,,2.0,0.0,AS_NEW,261.0,19.0,4.0,4.0,1.994
470,11159262,Hodeige,4351,,,,,HOUSE,HOUSE,165000.0,BUY_REGULAR,,103.0,,1.0,,0,1.0,12.0,1.0,479.0,,,3.0,0.0,TO_RENOVATE,583.0,,,,
471,11159257,Manage,7170,,,,,HOUSE,APARTMENT_BLOCK,289000.0,BUY_REGULAR,,166.0,SEMI_EQUIPPED,1.0,0.0,0,,,,,,,2.0,0.0,GOOD,110.0,,,,
472,11159255,Halle,1500,Kardinaal Cardijnstraat,13,50.7368535,4.2375115,HOUSE,EXCEPTIONAL_PROPERTY,299999.0,BUY_REGULAR,,299.0,INSTALLED,1.0,0.0,0,1.0,21.0,1.0,102.0,,,2.0,0.0,TO_RENOVATE,221.0,242.0,34.0,6.0,0.197
473,11159253,Oupeye,4680,Rue de la Wallonie,"4,D",50.708677,5.6219457,HOUSE,HOUSE,299000.0,BUY_REGULAR,,116.0,NOT_INSTALLED,1.0,0.0,0,1.0,25.0,1.0,204.0,,,3.0,0.0,TO_BE_DONE_UP,381.0,18.0,2.0,0.0,
474,11159254,Herstal,4040,Rue de la Marsalle,55,50.676573,5.6293284,APARTMENT,APARTMENT,179000.0,BUY_REGULAR,,63.0,INSTALLED,1.0,0.0,0,1.0,34.0,1.0,33.0,,,2.0,0.0,AS_NEW,,23.0,13.0,0.0,
475,11137925,Gavere,9890,Onderstraat,39,50.9304044,3.6601089,HOUSE,HOUSE,510000.0,BUY_REGULAR,,430.0,USA_HYPER_EQUIPPED,1.0,0.0,0,1.0,50.0,1.0,179.0,,,2.0,0.0,TO_BE_DONE_UP,309.0,14.0,4.0,4.0,1.149
476,11139236,Dendermonde,9200,Lindanusstraat,39,51.0284841,4.1032699,HOUSE,MANSION,449000.0,BUY_REGULAR,,301.0,,1.0,,1,,,1.0,,,,2.0,,TO_BE_DONE_UP,215.0,50.0,6.0,0.0,
477,11159258,PIETON,7160,,,,,HOUSE,HOUSE,74999.0,BUY_REGULAR,,105.0,NOT_INSTALLED,1.0,0.0,0,1.0,,,,,,2.0,0.0,TO_RENOVATE,0.0,,,,
478,10829672,Denderleeuw,9470,Oude Molenweg,4,50.8848416,4.0708674,HOUSE,HOUSE,455000.0,BUY_REGULAR,,214.0,HYPER_EQUIPPED,1.0,0.0,0,1.0,20.0,1.0,150.0,,,3.0,,AS_NEW,256.0,7.0,0.0,1.0,0.349
479,11159260,Theux Polleur,4910,Chaussée de Verviers,193,50.5594898,5.8621102,HOUSE,VILLA,499000.0,BUY_REGULAR,,197.0,INSTALLED,1.0,0.0,0,1.0,120.0,1.0,1070.0,,,4.0,0.0,AS_NEW,1200.0,2.0,1.0,0.0,
480,11139697,Ukkel,1180,Clos du Drossart,25,50.7934845,4.3547596,HOUSE,HOUSE,850000.0,BUY_REGULAR,,330.0,USA_HYPER_EQUIPPED,1.0,0.0,0,1.0,20.0,1.0,165.0,,,2.0,0.0,AS_NEW,247.0,19.0,11.0,8.0,0.646
481,11149315,Anderlecht,1070,Avenue des Edelweiss,4,50.8166167,4.2842514,HOUSE,HOUSE,445000.0,BUY_REGULAR,,143.0,HYPER_EQUIPPED,1.0,0.0,0,1.0,,1.0,60.0,,,2.0,0.0,AS_NEW,186.0,28.0,5.0,13.0,0.8
482,11139920,Knokke-Heist,8300,Abelendreef,8,51.3245777,3.3030521,HOUSE,HOUSE,1395000.0,BUY_REGULAR,14.0,194.0,HYPER_EQUIPPED,1.0,,0,,,,,,,4.0,,AS_NEW,618.0,18.0,1.0,1.0,2.021
483,11145309,Ruisbroek,2870,Kaardijk,96,51.0843302,4.3360215,HOUSE,HOUSE,394000.0,BUY_REGULAR,,184.0,HYPER_EQUIPPED,1.0,,1,1.0,25.0,1.0,,,,3.0,,GOOD,300.0,9.0,0.0,1.0,
484,11150854,FLÉMALLE,4400,Chaussée de Ramioul,223,50.5830107,5.4242052,HOUSE,HOUSE,205000.0,BUY_REGULAR,,136.0,SEMI_EQUIPPED,1.0,,1,1.0,30.0,,,,,3.0,,GOOD,140.0,4.0,0.0,1.0,0.311
485,11150855,FLÉMALLE,4400,Chaussée de Ramioul,223,50.5830107,5.4242052,HOUSE,APARTMENT_BLOCK,205000.0,BUY_REGULAR,,136.0,SEMI_EQUIPPED,1.0,,1,1.0,30.0,,,,,3.0,,GOOD,140.0,4.0,0.0,1.0,0.311
486,11149661,Bruxelles,1120,Venelle de l'Alchimiste,14,50.8978603,4.3947661,HOUSE,HOUSE,690000.0,BUY_REGULAR,,240.0,,,0.0,0,1.0,50.0,1.0,150.0,,,3.0,0.0,GOOD,356.0,58.0,10.0,1.0,2.088
487,11149566,Laeken,1020,Avenue des Croix du Feu,203,50.8931962,4.3644508,HOUSE,APARTMENT_BLOCK,795000.0,BUY_REGULAR,,300.0,INSTALLED,1.0,0.0,0,1.0,15.0,1.0,40.0,,,2.0,0.0,GOOD,185.0,121.0,15.0,3.0,0.766
488,11152762,SINT-AMANDSBERG,9040,Emiel Lossystraat,59,51.0492977,3.7599721,HOUSE,HOUSE,295000.0,BUY_REGULAR,,127.0,INSTALLED,1.0,,0,1.0,15.0,,,,,2.0,,TO_BE_DONE_UP,201.0,80.0,9.0,12.0,0.669
489,11152296,Bonheiden,2820,WATERLELIESTRAAT,5,51.0095096,4.5941163,HOUSE,HOUSE,485000.0,BUY_REGULAR,,183.0,INSTALLED,1.0,,1,1.0,12.0,1.0,,,,4.0,,GOOD,1295.0,4.0,3.0,1.0,1.89
490,11152288,HERENT,3020,Vloerstraat,67,50.9163143,4.6794646,HOUSE,HOUSE,425000.0,BUY_REGULAR,,250.0,INSTALLED,1.0,,0,1.0,30.0,1.0,1200.0,,,3.0,,GOOD,1580.0,29.0,5.0,4.0,1.16
491,11151490,Mechelen,2800,Koning Albertstraat,25,51.0639988,4.458272,HOUSE,HOUSE,485000.0,BUY_REGULAR,,163.0,INSTALLED,1.0,,1,,,1.0,190.0,,,4.0,,GOOD,1049.0,17.0,2.0,2.0,1.661
492,11144028,Geraardsbergen Moerbeke,9500,Leemputstraat,6,50.752437,3.9179326,HOUSE,VILLA,335000.0,BUY_REGULAR,,176.0,USA_HYPER_EQUIPPED,1.0,0.0,0,1.0,,,,,,3.0,,AS_NEW,381.0,1.0,0.0,0.0,
493,11128912,Diepenbeek,3590,Sint-Barbarastraat,94,50.928423,5.448373,HOUSE_GROUP,HOUSE_GROUP,,BUY_REGULAR,,,,,,0,,,,,,,,,,,5.0,0.0,0.0,
494,11150637,Opwijk,1745,Klei,23,50.9614771,4.2046652,HOUSE,HOUSE,495000.0,BUY_REGULAR,,182.0,HYPER_EQUIPPED,1.0,0.0,0,1.0,,,,,,4.0,,JUST_RENOVATED,1550.0,9.0,3.0,8.0,1.537
495,11128858,Luik,4020,Rue du Moulin,257,50.6432758,5.6043597,HOUSE,HOUSE,139000.0,BUY_REGULAR,,97.0,SEMI_EQUIPPED,1.0,,1,1.0,22.0,,,,,2.0,0.0,TO_BE_DONE_UP,81.0,26.0,5.0,1.0,1.806
496,11128403,Ronse,9600,Elzeelsesteenweg,85,50.7427944,3.6141025,HOUSE,HOUSE,245000.0,BUY_REGULAR,,112.0,INSTALLED,1.0,0.0,0,1.0,10.0,1.0,25.0,,,2.0,0.0,AS_NEW,83.0,13.0,11.0,1.0,0.822
497,11159245,Kontich,2550,Molenstraat,54,51.1366196,4.4417079,HOUSE,MIXED_USE_BUILDING,875000.0,BUY_REGULAR,,450.0,HYPER_EQUIPPED,1.0,,0,1.0,70.0,,,,,2.0,,GOOD,638.0,61.0,15.0,1.0,2.118
498,11129246,Assebroek,8310,Astridlaan,221,51.1947971,3.2606616,HOUSE,HOUSE,435000.0,BUY_REGULAR,,153.0,HYPER_EQUIPPED,1.0,0.0,0,1.0,25.0,1.0,112.0,,,3.0,,JUST_RENOVATED,324.0,6.0,2.0,0.0,
499,11157874,Waterloo,1410,Quartier St-John's,.,50.7047021,4.4150871,HOUSE,VILLA,1490000.0,BUY_REGULAR,,450.0,HYPER_EQUIPPED,1.0,0.0,0,1.0,,1.0,,,,4.0,1.0,GOOD,954.0,62.0,16.0,0.0,
500,11128061,Lummen,3560,Pastorijstraat,41,51.001316,5.1454791,HOUSE_GROUP,HOUSE_GROUP,,BUY_REGULAR,,,,,,0,,,,,,,,,,,5.0,1.0,0.0,
501,11129641,Antwerpen,2660,Verenigde Natieslaan,294,51.1588818,4.3460055,HOUSE,TOWN_HOUSE,387500.0,BUY_REGULAR,1.0,148.0,HYPER_EQUIPPED,1.0,,0,1.0,17.0,1.0,120.0,,,1.0,0.0,AS_NEW,204.0,1.0,1.0,2.0,2.091
502,11128908,Bilzen,3740,Buissen,21,50.8830586,5.5235677,HOUSE_GROUP,HOUSE_GROUP,,BUY_REGULAR,,,,,,0,,,,,,,,,,,4.0,0.0,1.0,1.198
503,11019706,Londerzeel,1840,Gerard Walschapplein,3,51.0275478,4.2944827,HOUSE,TOWN_HOUSE,448000.0,BUY_REGULAR,,160.0,HYPER_EQUIPPED,1.0,0.0,0,1.0,6.0,,,,,2.0,0.0,AS_NEW,61.0,2.0,0.0,0.0,
504,11128213,Wetteren,9230,Kasterstraat,72,51.0114101,3.8848528,HOUSE,HOUSE,249000.0,BUY_REGULAR,,90.0,INSTALLED,1.0,0.0,0,1.0,,,,,,2.0,0.0,GOOD,90.0,104.0,14.0,4.0,0.524
505,11129774,Kasteelbrakel,1440,Avenue des Boignees,22,50.6779722,4.3002552,HOUSE,HOUSE,445000.0,BUY_REGULAR,,161.0,HYPER_EQUIPPED,1.0,0.0,0,1.0,68.0,1.0,600.0,,,4.0,0.0,GOOD,1740.0,4.0,1.0,0.0,
506,11159248,Binche,7130,Rue de la Régence,33,50.414224,4.1660352,APARTMENT,APARTMENT,185712.0,BUY_REGULAR,,77.0,,,,0,,,,,,,,,AS_NEW,,137.0,18.0,0.0,
507,11128936,Walhain,1457,Chemin du Long Cerisier,14,50.6137372,4.7148876,HOUSE,VILLA,399000.0,BUY_REGULAR,,158.0,INSTALLED,1.0,0.0,0,1.0,41.0,,,,,4.0,0.0,TO_BE_DONE_UP,1921.0,1.0,0.0,0.0,
508,11159241,Zoutleeuw,3440,Boomgaardstraat,1,50.8693584,5.0944511,HOUSE,HOUSE,315000.0,BUY_REGULAR,,200.0,HYPER_EQUIPPED,1.0,0.0,0,1.0,,,,,,4.0,0.0,GOOD,4578.0,1.0,0.0,0.0,
509,11159237,Schelle,2627,,,,,APARTMENT,APARTMENT,235000.0,BUY_REGULAR,,84.0,INSTALLED,1.0,0.0,0,,,,,,,2.0,,JUST_RENOVATED,,,,,
510,11159242,Boortmeerbeek,3191,,,,,HOUSE,HOUSE,495000.0,BUY_REGULAR,,220.0,,1.0,0.0,0,1.0,,,,,,4.0,,,494.0,,,,
511,11159240,Scherpenheuvel-Zichem,3271,Molstraat,6,50.9973643,4.9569616,HOUSE,HOUSE,237000.0,BUY_REGULAR,,137.0,INSTALLED,1.0,0.0,0,1.0,,,,,,4.0,0.0,GOOD,687.0,1.0,0.0,1.0,2.204
512,11159227,'s Gravenbrakel,7090,,,,,HOUSE,HOUSE,40000.0,LIFE_ANNUITY,,189.0,,1.0,,0,1.0,18.0,1.0,166.0,,,2.0,,GOOD,250.0,,,,
513,11159222,Vorst,1190,,,,,APARTMENT,APARTMENT,225000.0,BUY_REGULAR,,62.0,USA_SEMI_EQUIPPED,1.0,0.0,0,1.0,8.0,,,,,,,GOOD,,,,,
514,11159236,Westende,8434,Distellaan,"8,0404",51.16954,2.77256,APARTMENT,APARTMENT,225000.0,BUY_REGULAR,,46.0,SEMI_EQUIPPED,1.0,1.0,0,1.0,4.0,1.0,200.0,,,2.0,1.0,GOOD,,8.0,15.0,0.0,
515,11159226,Mont-sur-Marchienne,6032,,,,,APARTMENT,TRIPLEX,350000.0,BUY_REGULAR,,145.0,HYPER_EQUIPPED,1.0,,0,1.0,45.0,,,,,2.0,,AS_NEW,,,,,
516,10965741,Grivegnée,4030,rue Belvaux,48,50.6198281,5.6019345,HOUSE,HOUSE,149000.0,BUY_REGULAR,,195.0,,1.0,,0,,,,,,,2.0,,TO_BE_DONE_UP,0.0,161.0,19.0,2.0,1.833
517,11159230,Lasne,1380,Route de l'Etat,264,50.6641026,4.4635371,HOUSE,HOUSE,389000.0,BUY_REGULAR,,140.0,INSTALLED,1.0,,0,1.0,,1.0,600.0,,,2.0,0.0,,770.0,0.0,0.0,0.0,
518,11115706,Mont-sur-Marchienne,6032,,,,,HOUSE,TOWN_HOUSE,350000.0,BUY_REGULAR,,145.0,HYPER_EQUIPPED,1.0,,0,1.0,45.0,,,,,2.0,,AS_NEW,205.0,,,,
519,11159228,Waterloo,1410,,,,,HOUSE,VILLA,595000.0,BUY_REGULAR,,197.0,USA_INSTALLED,1.0,0.0,0,1.0,,1.0,589.0,,,4.0,0.0,GOOD,589.0,,,,
520,11159221,Eghezée,5310,,,,,HOUSE,HOUSE,385000.0,BUY_REGULAR,,127.0,,,0.0,0,1.0,,,,,,2.0,,AS_NEW,590.0,,,,
521,11159220,Eghezée,5310,,,,,HOUSE,HOUSE,385000.0,BUY_REGULAR,,136.0,,,0.0,0,1.0,,,,,,2.0,,AS_NEW,451.0,,,,
522,11159206,Balen,2490,Populierenstraat,28,51.1889298,5.241041,HOUSE,HOUSE,459000.0,BUY_REGULAR,,,,,,0,1.0,,,,,,4.0,,,767.0,2.0,0.0,0.0,
523,11159204,Bever,1547,Kamstraat,28,50.7185494,3.9503688,HOUSE,MIXED_USE_BUILDING,895000.0,BUY_REGULAR,,320.0,HYPER_EQUIPPED,1.0,,0,1.0,,,,,,4.0,0.0,GOOD,5920.0,1.0,2.0,0.0,
524,11053914,Gemmenich,4851,Chemin du Duc,50,50.7510727,5.9964703,HOUSE,TOWN_HOUSE,200000.0,BUY_REGULAR,,91.0,INSTALLED,1.0,,0,1.0,,,,,,3.0,,,520.0,2.0,1.0,0.0,
525,11159189,Zottegem,9620,Driebunderstraat,2a,50.8627358,3.8481076,HOUSE,MIXED_USE_BUILDING,399000.0,BUY_REGULAR,,,,,,0,1.0,,,,,,4.0,,GOOD,3098.0,7.0,0.0,1.0,1.985
526,11159218,Bomal (Ramillies),1367,,,,,HOUSE,HOUSE,385000.0,BUY_REGULAR,,127.0,,,,0,1.0,,,,,,3.0,,,718.0,,,,
527,11128291,Ukkel,1180,Venelle de Saint-Job,5,50.7938001,4.3646187,HOUSE,HOUSE,650000.0,BUY_REGULAR,,174.0,HYPER_EQUIPPED,1.0,,0,1.0,10.0,1.0,40.0,,,2.0,0.0,AS_NEW,110.0,65.0,15.0,5.0,0.073
528,11159219,Bomal (Ramillies),1367,,,,,HOUSE,HOUSE,390000.0,BUY_REGULAR,,127.0,,,,0,1.0,,,,,,3.0,,,762.0,,,,
529,10836157,Eigenbrakel,1420,,,,,HOUSE,HOUSE,550000.0,BUY_REGULAR,,320.0,HYPER_EQUIPPED,1.0,0.0,0,,,1.0,800.0,,,4.0,0.0,GOOD,1030.0,,,,
530,11159194,Hove,2540,Veldkantvoetweg,107,51.1493931,4.4757646,HOUSE,HOUSE,420000.0,BUY_REGULAR,,153.0,,,0.0,0,,,,,,,4.0,0.0,TO_RENOVATE,459.0,12.0,1.0,4.0,0.786
531,11159205,Balen,2490,Populierenstraat,26,51.1888021,5.241001,HOUSE,HOUSE,489000.0,BUY_REGULAR,,,,,,0,1.0,,,,,,4.0,,,696.0,2.0,0.0,0.0,
532,11159213,Antwerpen,2018,Van Peltstraat,62,51.1994191,4.3972856,HOUSE,HOUSE,640000.0,BUY_REGULAR,,205.0,HYPER_EQUIPPED,1.0,,0,1.0,,,,,,2.0,0.0,AS_NEW,63.0,106.0,67.0,13.0,0.51
533,11159188,Sint-Pieters-Leeuw,1600,Oude Postweg,23,50.7910354,4.2051264,HOUSE,HOUSE,485000.0,BUY_REGULAR,,212.0,INSTALLED,1.0,0.0,0,1.0,,,,,,4.0,0.0,TO_BE_DONE_UP,603.0,0.0,0.0,0.0,
534,11136941,Kluisbergen,9690,Kieverstraat,19,50.7824193,3.5133465,HOUSE,HOUSE,245000.0,BUY_REGULAR,,185.0,SEMI_EQUIPPED,1.0,,1,1.0,,,,,,3.0,,TO_RENOVATE,750.0,2.0,1.0,0.0,
535,11159191,Zottegem,9620,Driebunderstraat,2a,50.8627358,3.8481076,HOUSE,HOUSE,399000.0,BUY_REGULAR,,,,,,0,1.0,,,,,,4.0,,GOOD,3098.0,7.0,0.0,1.0,1.985
536,11136541,Eigenbrakel,1420,Chaussee d'Alsemberg,92,50.6872132,4.369077,HOUSE,APARTMENT_BLOCK,420000.0,BUY_REGULAR,,195.0,SEMI_EQUIPPED,1.0,0.0,0,1.0,6.0,1.0,200.0,,,2.0,0.0,GOOD,290.0,131.0,24.0,0.0,
537,11159203,Bever,1547,Kamstraat,28,50.7185494,3.9503688,HOUSE,COUNTRY_COTTAGE,895000.0,BUY_REGULAR,,320.0,HYPER_EQUIPPED,1.0,,0,1.0,,,,,,4.0,0.0,GOOD,5920.0,1.0,2.0,0.0,
538,11159198,Namen,5100,,,,,HOUSE,APARTMENT_BLOCK,450000.0,BUY_REGULAR,,340.0,,,,0,,,,,,,3.0,,,0.0,,,,
539,11128350,Gent Mariakerke,9030,Gérard Willemotlaan,88,51.074975,3.68256,HOUSE_GROUP,HOUSE_GROUP,,BUY_REGULAR,,,,,,0,,,,,,,,,,,32.0,5.0,3.0,
540,11128342,Gent Gentbrugge,9050,Jules de Saint-Genoisstraat,81-81A,51.029384,3.7586157,HOUSE_GROUP,HOUSE_GROUP,,BUY_REGULAR,,,,,,0,,,,,,,,,,,48.0,8.0,7.0,1.07
541,11137517,Ninove,9400,Brakelsesteenweg,258,50.833978,3.9901378,HOUSE,HOUSE,329000.0,BUY_REGULAR,,211.0,SEMI_EQUIPPED,1.0,,0,,,,,,,4.0,,TO_RENOVATE,868.0,6.0,0.0,0.0,
542,11128726,Asse,1730,Notelaarstraat,2,50.8854531,4.2374802,HOUSE,VILLA,759000.0,BUY_REGULAR,5.0,315.0,HYPER_EQUIPPED,1.0,,1,1.0,26.0,1.0,450.0,,,4.0,0.0,AS_NEW,818.0,3.0,1.0,0.0,
543,11135894,NESSONVAUX,4870,Rue Large,182,50.5728287,5.7373514,HOUSE,HOUSE,199000.0,BUY_REGULAR,,153.0,INSTALLED,1.0,,0,1.0,8.0,,,,,2.0,0.0,AS_NEW,70.0,0.0,1.0,1.0,0.135
544,11136937,MOERBEKE,9500,Heuvelstraat,41,50.7501937,3.9132423,HOUSE,HOUSE,259000.0,BUY_REGULAR,,230.0,SEMI_EQUIPPED,1.0,,1,1.0,,,,,,4.0,,TO_RENOVATE,600.0,0.0,0.0,2.0,2.335
545,11136668,Turnhout,2300,Hannuitstraat,27,51.3254496,4.9399693,HOUSE,HOUSE,365000.0,BUY_REGULAR,,185.0,HYPER_EQUIPPED,1.0,,0,1.0,30.0,1.0,150.0,,,2.0,0.0,JUST_RENOVATED,245.0,26.0,21.0,4.0,0.779
546,11108163,Gijzegem,9308,Steenweg naar Oudegem,101,50.98266,4.0496187,HOUSE,HOUSE,369000.0,BUY_REGULAR,,217.0,INSTALLED,1.0,0.0,0,1.0,,,,,,3.0,0.0,TO_BE_DONE_UP,2322.0,11.0,1.0,5.0,0.176
547,11136542,Eigenbrakel,1420,Chaussee d'Alsemberg,92,50.6872132,4.369077,HOUSE,HOUSE,420000.0,BUY_REGULAR,,195.0,SEMI_EQUIPPED,1.0,0.0,0,1.0,6.0,1.0,200.0,,,2.0,0.0,GOOD,290.0,131.0,24.0,0.0,
548,10949380,Malmedy,4960,Rue Saint Aubin,70,50.396538,6.0043612,HOUSE,VILLA,495000.0,BUY_REGULAR,,243.0,INSTALLED,1.0,0.0,0,1.0,,,,,,4.0,0.0,GOOD,2208.0,2.0,2.0,0.0,
549,11140955,Ronse,9600,Opgeëistenstraat,91,50.7528328,3.5917846,HOUSE,HOUSE,109000.0,BUY_REGULAR,,137.0,SEMI_EQUIPPED,1.0,0.0,0,,,1.0,20.0,,,2.0,0.0,TO_RENOVATE,110.0,13.0,13.0,2.0,1.125
550,11140616,Aalst,9320,Stillebreek,13,50.9098555,4.0725846,HOUSE,HOUSE,379000.0,BUY_REGULAR,,152.0,INSTALLED,1.0,0.0,0,1.0,27.0,1.0,1000.0,,,4.0,0.0,GOOD,1312.0,5.0,1.0,0.0,
551,11155386,Deerlijk,8540,Reigerput,13,50.865792,3.3489764,HOUSE,VILLA,445000.0,BUY_REGULAR,13.0,145.0,INSTALLED,1.0,,0,,,1.0,390.0,,,,,AS_NEW,534.0,7.0,1.0,1.0,1.709
552,11154498,SCHAERBEEK,1030,Avenue Eugène Plasky,165,50.8530034,4.3977122,HOUSE,HOUSE,648000.0,BUY_REGULAR,,240.0,INSTALLED,1.0,,1,1.0,20.0,1.0,80.0,,,,,TO_BE_DONE_UP,165.0,211.0,71.0,18.0,0.044
553,11155388,Waregem,8790,Reigerput,13,50.865792,3.3489764,HOUSE,VILLA,445000.0,BUY_REGULAR,13.0,145.0,INSTALLED,1.0,,0,,,1.0,390.0,,,,,AS_NEW,534.0,7.0,1.0,1.0,1.709
554,11154497,SCHAERBEEK,1030,Avenue Eugène Plasky,165,50.8530034,4.3977122,HOUSE,APARTMENT_BLOCK,648000.0,BUY_REGULAR,,240.0,INSTALLED,1.0,,1,1.0,20.0,1.0,80.0,,,,,TO_BE_DONE_UP,165.0,211.0,71.0,18.0,0.044
555,11146097,Gijzegem,9308,Steenweg naar Oudegem,101,50.98266,4.0496187,HOUSE,HOUSE,369000.0,BUY_REGULAR,,217.0,INSTALLED,1.0,0.0,0,1.0,,,,,,3.0,0.0,TO_BE_DONE_UP,2322.0,11.0,1.0,5.0,0.176
556,9081562,Habay-la-Neuve,6720,Rue de la Libération,,49.7259086,5.6405752,HOUSE_GROUP,HOUSE_GROUP,,BUY_REGULAR,,,,,,0,,,,,,,,,,,24.0,3.0,0.0,
557,11155385,Beveren-Leie,8791,Reigerput,13,50.865792,3.3489764,HOUSE,VILLA,445000.0,BUY_REGULAR,13.0,145.0,INSTALLED,1.0,,0,,,1.0,390.0,,,,,AS_NEW,534.0,7.0,1.0,1.0,1.709
558,11159189,Zottegem,9620,Driebunderstraat,2a,50.8627358,3.8481076,HOUSE,MIXED_USE_BUILDING,399000.0,BUY_REGULAR,,,,,,0,1.0,,,,,,4.0,,GOOD,3098.0,7.0,0.0,1.0,1.985
559,11150313,Kraainem,1950,Val au Bois,38,50.8288926,4.4785422,HOUSE,VILLA,1025000.0,BUY_REGULAR,5.0,225.0,HYPER_EQUIPPED,1.0,0.0,0,1.0,40.0,1.0,750.0,,,4.0,,GOOD,1554.0,10.0,2.0,7.0,1.27
560,11155492,Mechelen,2800,Adegemstraat,38,51.0259311,4.4753163,HOUSE,HOUSE,299000.0,BUY_REGULAR,17.0,300.0,SEMI_EQUIPPED,1.0,,0,,,,,,,,,TO_RENOVATE,111.0,254.0,74.0,2.0,0.792
561,8621387,Hanzinne,5621,Rue Vieux Martin,,50.311873,4.5428247,HOUSE_GROUP,HOUSE_GROUP,,BUY_REGULAR,,,,,,0,,,,,,,,,,,0.0,0.0,0.0,
562,11159188,Sint-Pieters-Leeuw,1600,Oude Postweg,23,50.7910354,4.2051264,HOUSE,HOUSE,485000.0,BUY_REGULAR,,212.0,INSTALLED,1.0,0.0,0,1.0,,,,,,4.0,0.0,TO_BE_DONE_UP,603.0,0.0,0.0,0.0,
563,10968806,Luik,4000,Rue Jean Ramey,14,50.6407098,5.5457097,HOUSE,HOUSE,87000.0,BUY_REGULAR,,86.0,NOT_INSTALLED,1.0,0.0,0,1.0,23.0,,,,,2.0,0.0,TO_RENOVATE,70.0,21.0,3.0,5.0,0.715
564,11159176,Doornik,7500,,,,,HOUSE,MANSION,335000.0,BUY_REGULAR,,177.0,INSTALLED,1.0,0.0,0,1.0,,,,,,2.0,,AS_NEW,510.0,,,,
565,11159185,Aalst,9300,Sint Kamielstraat,61,50.9334617,4.0391661,HOUSE,HOUSE,190000.0,BUY_REGULAR,,125.0,SEMI_EQUIPPED,1.0,,0,1.0,,,,,,2.0,,TO_RENOVATE,130.0,52.0,17.0,5.0,1.345
566,11143179,SCHELLEBELLE,9260,Spoorwegstraat,28,51.0031042,3.9275062,HOUSE,EXCEPTIONAL_PROPERTY,305000.0,BUY_REGULAR,,182.0,SEMI_EQUIPPED,1.0,,1,1.0,25.0,1.0,685.0,,,4.0,0.0,TO_RENOVATE,825.0,9.0,0.0,1.0,
567,11159179,Keerbergen,3140,Oudstrijderslaan,48,51.0026054,4.6273938,APARTMENT,APARTMENT,375000.0,BUY_REGULAR,,100.0,USA_INSTALLED,1.0,0.0,0,1.0,,,,,,3.0,,AS_NEW,,3.0,2.0,6.0,0.003
568,9039914,Anseremme,5500,Rue de la montagne,,50.2325575,4.8921387,HOUSE_GROUP,HOUSE_GROUP,,BUY_REGULAR,,,,,,0,,,,,,,,,,,0.0,1.0,0.0,
569,11066011,Gavere Asper,9890,Burgemeester P. Ceuterickstraat,5,50.911823,3.6511965,HOUSE_GROUP,HOUSE_GROUP,,BUY_REGULAR,,,,,,0,,,,,,,,,,,11.0,0.0,2.0,0.203
570,11159174,Brunehaut Laplaigne,7622,,,,,HOUSE,HOUSE,330000.0,BUY_REGULAR,,330.0,INSTALLED,1.0,0.0,0,1.0,113.0,1.0,542.0,,,4.0,0.0,AS_NEW,690.0,,,,
571,11159159,Brakel,9660,Hollebeekstraat,11,50.7854956,3.7982763,HOUSE,HOUSE,395000.0,BUY_REGULAR,,144.0,USA_HYPER_EQUIPPED,1.0,0.0,0,1.0,20.0,1.0,102.0,,,3.0,0.0,,196.0,0.0,0.0,0.0,
572,11159160,Brakel,9660,Hollebeekstraat,11,50.7854956,3.7982763,HOUSE_GROUP,HOUSE_GROUP,,BUY_REGULAR,,,,,,0,,,,,,,,,,,0.0,0.0,0.0,
573,11159157,Brakel,9660,Hollebeekstraat,11,50.7854956,3.7982763,HOUSE,HOUSE,498500.0,BUY_REGULAR,,234.0,USA_HYPER_EQUIPPED,1.0,0.0,0,1.0,30.0,1.0,24.0,,,3.0,0.0,,171.0,0.0,0.0,0.0,
574,11159187,Drogenbos,1620,Kuikenstraat,150,50.7928627,4.3141355,HOUSE,TOWN_HOUSE,349000.0,BUY_REGULAR,,134.0,SEMI_EQUIPPED,1.0,0.0,0,1.0,,,,,,2.0,,TO_BE_DONE_UP,114.0,50.0,4.0,7.0,1.388
575,11159181,Antwerpen Merksem,2170,Jozef Mulsstraat,6,51.2512819,4.4358564,APARTMENT,APARTMENT,225000.0,BUY_REGULAR,,81.0,USA_INSTALLED,1.0,0.0,0,1.0,12.0,1.0,24.0,,,2.0,,GOOD,,35.0,6.0,7.0,1.165
576,11159156,Brakel,9660,Hollebeekstraat,11,50.7854956,3.7982763,HOUSE,HOUSE,398000.0,BUY_REGULAR,,144.0,USA_HYPER_EQUIPPED,1.0,0.0,0,1.0,22.0,1.0,156.0,,,2.0,0.0,,249.0,0.0,0.0,0.0,
577,11159168,Moeskroen,7700,,,,,HOUSE,HOUSE,349000.0,BUY_REGULAR,,,INSTALLED,1.0,0.0,0,1.0,,1.0,250.0,,,4.0,0.0,GOOD,415.0,,,,
578,11159178,Keerbergen,3140,Gentiaandreef,4,51.0019614,4.6784487,HOUSE,VILLA,1125000.0,BUY_REGULAR,5.0,380.0,HYPER_EQUIPPED,1.0,0.0,0,1.0,,,,,,4.0,0.0,AS_NEW,1500.0,6.0,0.0,0.0,
579,11159171,Fleurus Wagnelée,6223,,,,,HOUSE,HOUSE,139900.0,BUY_REGULAR,,,SEMI_EQUIPPED,1.0,0.0,0,,,,,,,3.0,,TO_BE_DONE_UP,420.0,,,,
580,11064309,Menen,8930,,,,,HOUSE,HOUSE,269000.0,BUY_REGULAR,,143.0,INSTALLED,1.0,0.0,0,1.0,,1.0,55.0,,,3.0,0.0,GOOD,164.0,,,,
581,11159151,Geraardsbergen,9500,Zonnebloemstraat,27,50.7755836,3.8918584,HOUSE,VILLA,475000.0,BUY_REGULAR,,235.0,INSTALLED,1.0,0.0,0,1.0,38.0,1.0,2093.0,,,4.0,0.0,GOOD,2327.0,28.0,9.0,8.0,0.919
582,8794891,Lens,7870,Rue du Thy,,50.5569752,3.8891471,HOUSE_GROUP,HOUSE_GROUP,,BUY_REGULAR,,,,,,0,,,,,,,,,,,10.0,6.0,0.0,
583,11159167,Milmort,4041,Rue du Progrès,26,50.6909465,5.5838019,HOUSE,HOUSE,210000.0,BUY_REGULAR,,102.0,NOT_INSTALLED,1.0,0.0,0,,,1.0,571.0,,,3.0,0.0,TO_BE_DONE_UP,681.0,4.0,0.0,0.0,
584,11159172,Marchienne-au-Pont,6030,Rue Max Lambert,5,50.3986435,4.3924617,HOUSE,HOUSE,165000.0,BUY_REGULAR,,130.0,,1.0,,0,1.0,,,,,,2.0,,GOOD,0.0,1.0,0.0,2.0,0.32
585,11159180,Keerbergen,3140,Raambeekweg,2a,51.0093829,4.6137183,HOUSE,VILLA,1285000.0,BUY_REGULAR,4.0,433.0,USA_HYPER_EQUIPPED,1.0,0.0,0,1.0,,,,,,4.0,1.0,AS_NEW,1512.0,0.0,2.0,7.0,1.219
586,11159144,Wijnegem,2110,Eikenlaan,34,51.2255633,4.5228547,APARTMENT,APARTMENT,229000.0,BUY_REGULAR,,80.0,,,0.0,0,1.0,2.0,,,,,,,GOOD,,14.0,3.0,0.0,
587,11159145,Wijnegem,2110,Eikenlaan,34,51.2255633,4.5228547,APARTMENT,APARTMENT,209000.0,BUY_REGULAR,,80.0,,,0.0,0,1.0,2.0,,,,,,,TO_BE_DONE_UP,,14.0,3.0,0.0,
588,11009999,Berneau,4607,Rue de Battice,36,50.7396584,5.7306578,HOUSE,HOUSE,250000.0,BUY_REGULAR,,130.0,INSTALLED,1.0,,0,,,1.0,471.0,,,4.0,0.0,GOOD,584.0,5.0,2.0,2.0,2.294
589,11009333,Seraing,4102,Rue Grande Commune,4,50.5982013,5.5337619,HOUSE,HOUSE,109500.0,BUY_REGULAR,,105.0,NOT_INSTALLED,1.0,0.0,0,,,,,,,2.0,0.0,TO_RENOVATE,46.0,4.0,1.0,1.0,1.705
590,11159149,Denderleeuw,9470,Polderstraat,4,50.8800695,4.076116,HOUSE,HOUSE,425000.0,BUY_REGULAR,,192.0,HYPER_EQUIPPED,1.0,,0,1.0,19.0,1.0,56.0,,,3.0,,AS_NEW,0.0,10.0,0.0,1.0,0.958
591,11159147,Lille,2275,Singel,17,51.2683386,4.8672404,APARTMENT,APARTMENT,364000.0,BUY_REGULAR,,180.0,USA_HYPER_EQUIPPED,1.0,0.0,0,1.0,12.0,,,,,3.0,,AS_NEW,,3.0,0.0,0.0,
592,11159148,Dilbeek,1700,,,,,HOUSE,HOUSE,495000.0,BUY_REGULAR,,156.0,INSTALLED,1.0,0.0,0,1.0,,,,,,3.0,0.0,GOOD,385.0,,,,
593,11159150,Herselt,2230,Oude Baan,94,51.0751877,4.9140777,HOUSE,HOUSE,339000.0,BUY_REGULAR,,266.0,,1.0,,0,,,,,,,4.0,,GOOD,1058.0,1.0,0.0,1.0,1.861
594,11090012,Strijpen,9620,,,,,HOUSE_GROUP,HOUSE_GROUP,,BUY_REGULAR,,,,,,0,,,,,,,,,,,,,,
595,11063895,Ronse,9600,Elzelestraat,130,50.7451299,3.6101343,HOUSE,HOUSE,139000.0,BUY_REGULAR,,180.0,NOT_INSTALLED,1.0,0.0,0,,,1.0,20.0,,,2.0,0.0,TO_RENOVATE,130.0,14.0,12.0,1.0,0.472
596,11159155,Brakel,9660,Hollebeekstraat,11,50.7854956,3.7982763,HOUSE,HOUSE,490000.0,BUY_REGULAR,,222.0,USA_HYPER_EQUIPPED,1.0,0.0,0,1.0,22.0,1.0,102.0,,,2.0,0.0,,235.0,0.0,0.0,0.0,
597,10931098,Daverdisse Haut-Fays,6929,Rue de Vonèche,35,50.0020448,5.0167267,HOUSE,HOUSE,139000.0,BUY_REGULAR,,117.0,NOT_INSTALLED,1.0,0.0,0,1.0,,1.0,250.0,,,3.0,0.0,TO_RENOVATE,350.0,0.0,1.0,0.0,
598,11159175,Doornik,7500,,,,,APARTMENT,APARTMENT,149000.0,BUY_REGULAR,,46.0,INSTALLED,1.0,0.0,0,,,,,,,2.0,0.0,JUST_RENOVATED,,,,,
